[{"id":71021,"url":"swanleap","rank":1,"city":"Madison","ifmid":78,"ifiid":6,"growth":75660.8425,"workers":49,"company":"SwanLeap","website":"http://swanleap.com","state_l":"Wisconsin","state_s":"WI","revenue":98965631,"zipcode":53719,"founded":2013,"industry":"Logistics & Transportation","latitude":43.04531,"metrocode":"Madison, WI","longitude":-89.51538,"yrs_on_list":2,"previous_workers":4,"metro":"Madison, WI","partner_lists":""},{"id":87397,"url":"popsockets","rank":2,"city":"Boulder","ifmid":31,"ifiid":4,"growth":71423.762,"workers":118,"company":"PopSockets","website":"http://popsockets.com","state_l":"Colorado","state_s":"CO","revenue":168837562,"zipcode":80301,"founded":2010,"industry":"Consumer Products & Services","latitude":40.04947,"metrocode":"Boulder, CO","longitude":-105.20142,"yrs_on_list":1,"previous_workers":2,"metro":"Boulder, CO","partner_lists":""},{"id":87398,"url":"home-chef","rank":3,"city":"Chicago","ifmid":17,"ifiid":11,"growth":60165.5058,"workers":865,"company":"Home Chef","website":"homechef.com","state_l":"Illinois","state_s":"IL","revenue":255047839,"zipcode":60611,"founded":2013,"industry":"Food & Beverage","latitude":41.8957,"metrocode":"Chicago-Naperville-Elgin, IL-IN-WI","longitude":-87.61378,"yrs_on_list":1,"previous_workers":35,"metro":"Chicago","partner_lists":""},{"id":81957,"url":"velocity-global","rank":4,"city":"Denver","ifmid":30,"ifiid":17,"growth":39816.5093,"workers":55,"company":"Velocity Global","website":"http://velocityglobal.com","state_l":"Colorado","state_s":"CO","revenue":49175942,"zipcode":80205,"founded":2013,"industry":"Business Products & Services","latitude":39.75886,"metrocode":"Denver-Aurora-Lakewood, CO","longitude":-104.96283,"yrs_on_list":1,"previous_workers":1,"metro":"Denver","partner_lists":""},{"id":87399,"url":"depcom-power","rank":5,"city":"Scottsdale","ifmid":46,"ifiid":16,"growth":38962.9022,"workers":104,"company":"DEPCOM Power","website":"depcompower.com","state_l":"Arizona","state_s":"AZ","revenue":219574136,"zipcode":85258,"founded":2013,"industry":"Energy","latitude":33.5643,"metrocode":"Phoenix-Mesa-Scottsdale, AZ","longitude":-111.89588,"yrs_on_list":1,"previous_workers":27,"metro":"Phoenix","partner_lists":""},{"id":87400,"url":"aeronux-airways","rank":6,"city":"Marietta","ifmid":29,"ifiid":6,"growth":20005.239,"workers":17,"company":"Aeronux Airways","website":"aeronux.com","state_l":"Georgia","state_s":"GA","revenue":21874500,"zipcode":30066,"founded":2011,"industry":"Logistics & Transportation","latitude":34.03239,"metrocode":"Atlanta-Sandy Springs-Roswell, GA","longitude":-84.50515,"yrs_on_list":1,"previous_workers":3,"metro":"Atlanta","partner_lists":""},{"id":87401,"url":"diamond-assets","rank":7,"city":"Milton","ifmid":171,"ifiid":25,"growth":19717.5129,"workers":41,"company":"Diamond Assets","website":"diamond-assets.com","state_l":"Wisconsin","state_s":"WI","revenue":43084462,"zipcode":53563,"founded":2014,"industry":"Computer Hardware","latitude":42.80449,"metrocode":"Janesville, WI","longitude":-88.91599,"yrs_on_list":1,"previous_workers":2,"metro":"","partner_lists":""},{"id":87402,"url":"gforce-life-sciences","rank":8,"city":"Chicago","ifmid":17,"ifiid":21,"growth":16426.6575,"workers":13,"company":"GForce Life Sciences","website":"http://gforcestaff.com","state_l":"Illinois","state_s":"IL","revenue":16893384,"zipcode":60606,"founded":2013,"industry":"Human Resources","latitude":41.88207,"metrocode":"Chicago-Naperville-Elgin, IL-IN-WI","longitude":-87.63735,"yrs_on_list":1,"previous_workers":3,"metro":"Chicago","partner_lists":""},{"id":86959,"url":"flexport","rank":8,"city":"San Francisco","ifmid":4,"ifiid":6,"growth":15911.2237,"workers":532,"company":"Flexport","website":"http://flexport.com","state_l":"California","state_s":"CA","revenue":224745864,"zipcode":94102,"founded":2013,"industry":"Logistics & Transportation","latitude":37.77959,"metrocode":"San Francisco-Oakland-Hayward, CA","longitude":-122.41932,"yrs_on_list":1,"previous_workers":26,"metro":"San Francisco","partner_lists":""},{"id":69341,"url":"scientistcom","rank":9,"city":"Solana Beach","ifmid":11,"ifiid":10,"growth":15267.7557,"workers":49,"company":"Scientist.com","website":"http://scientist.com","state_l":"California","state_s":"CA","revenue":50268390,"zipcode":92075,"founded":2007,"industry":"Health","latitude":32.99725,"metrocode":"San Diego-Carlsbad, CA","longitude":-117.26058,"yrs_on_list":2,"previous_workers":8,"metro":"San Diego","partner_lists":""},{"id":43343,"url":"the-garrett-companies","rank":10,"city":"Greenwood","ifmid":81,"ifiid":3,"growth":14821.8995,"workers":40,"company":"The Garrett Companies","website":"http://thegarrettco.com","state_l":"Indiana","state_s":"IN","revenue":82070447,"zipcode":46143,"founded":2014,"industry":"Real Estate","latitude":39.59586,"metrocode":"Indianapolis-Carmel-Anderson, IN","longitude":-86.11632,"yrs_on_list":3,"previous_workers":6,"metro":"Indianapolis, IN","partner_lists":""},{"id":70931,"url":"dgc-international","rank":11,"city":"Vienna","ifmid":3,"ifiid":7,"growth":14475.5148,"workers":55,"company":"DGC International","website":"dgci.com","state_l":"Virginia","state_s":"VA","revenue":179707790,"zipcode":22182,"founded":2010,"industry":"Government Services","latitude":38.93842,"metrocode":"Washington-Arlington-Alexandria, DC-VA-MD-WV","longitude":-77.27552,"yrs_on_list":2,"previous_workers":4,"metro":"Washington, DC","partner_lists":""},{"id":87403,"url":"exabeam","rank":12,"city":"San Mateo","ifmid":4,"ifiid":13,"growth":14032.4773,"workers":153,"company":"Exabeam","website":"exabeam.com","state_l":"California","state_s":"CA","revenue":18781497,"zipcode":94403,"founded":2013,"industry":"Security","latitude":37.53845,"metrocode":"San Francisco-Oakland-Hayward, CA","longitude":-122.30545,"yrs_on_list":1,"previous_workers":22,"metro":"San Francisco","partner_lists":""},{"id":87000,"url":"podium","rank":13,"city":"Lehi","ifmid":48,"ifiid":17,"growth":13645.2287,"workers":254,"company":"Podium","website":"podium.com","state_l":"Utah","state_s":"UT","revenue":30248850,"zipcode":84043,"founded":2013,"industry":"Business Products & Services","latitude":40.41076,"metrocode":"Provo-Orem, UT","longitude":-111.87679,"yrs_on_list":1,"previous_workers":5,"metro":"Provo-Orem, UT","partner_lists":""},{"id":87404,"url":"inova-us","rank":14,"city":"Key Biscayne","ifmid":1,"ifiid":5,"growth":13135.1845,"workers":25,"company":"Inova US","website":"inovaus.com","state_l":"Florida","state_s":"FL","revenue":39445482,"zipcode":33149,"founded":2008,"industry":"Advertising & Marketing","latitude":25.71951,"metrocode":"Miami-Fort Lauderdale-West Palm Beach, FL","longitude":-80.16854,"yrs_on_list":1,"previous_workers":12,"metro":"Miami","partner_lists":""},{"id":87405,"url":"adrizer","rank":15,"city":"Sarasota","ifmid":576,"ifiid":9,"growth":12500.7218,"workers":24,"company":"AdRizer","website":"adrizer.com","state_l":"Florida","state_s":"FL","revenue":16723552,"zipcode":34236,"founded":2013,"industry":"Software","latitude":27.31649,"metrocode":"Sarasota-Bradenton-Venice, FL","longitude":-82.55353,"yrs_on_list":1,"previous_workers":2,"metro":"Sarasota-Bradenton-Venice, FL","partner_lists":""},{"id":87406,"url":"welfont","rank":16,"city":"Tampa","ifmid":7,"ifiid":3,"growth":11359.3104,"workers":55,"company":"Welfont","website":"welfont.com","state_l":"Florida","state_s":"FL","revenue":14055761,"zipcode":33602,"founded":2014,"industry":"Real Estate","latitude":27.95353,"metrocode":"Tampa-St. Petersburg-Clearwater, FL","longitude":-82.45711,"yrs_on_list":1,"previous_workers":1,"metro":"Tampa","partner_lists":""},{"id":67751,"url":"thinx","rank":17,"city":"New York City","ifmid":9,"ifiid":18,"growth":10924.1379,"workers":44,"company":"THINX","website":"shethinx.com","state_l":"New York","state_s":"NY","revenue":39556922,"zipcode":10001,"founded":2014,"industry":"Retail","latitude":40.75063,"metrocode":"New York-Newark-Jersey City, NY-NJ-PA","longitude":-73.99718,"yrs_on_list":1,"previous_workers":4,"metro":"New York City","partner_lists":""},{"id":71141,"url":"draken-international","rank":18,"city":"Lakeland","ifmid":575,"ifiid":7,"growth":10562.3592,"workers":200,"company":"Draken International","website":"drakenintl.com","state_l":"Florida","state_s":"FL","revenue":30403184,"zipcode":33811,"founded":2011,"industry":"Government Services","latitude":27.9844,"metrocode":"Lakeland, FL","longitude":-82.01526,"yrs_on_list":2,"previous_workers":50,"metro":"","partner_lists":""},{"id":87407,"url":"calmcom","rank":19,"city":"San Francisco","ifmid":4,"ifiid":4,"growth":10548.7682,"workers":25,"company":"Calm.com","website":"calm.com","state_l":"California","state_s":"CA","revenue":22347505,"zipcode":94105,"founded":2012,"industry":"Consumer Products & Services","latitude":37.78986,"metrocode":"San Francisco-Oakland-Hayward, CA","longitude":-122.39366,"yrs_on_list":1,"previous_workers":3,"metro":"San Francisco","partner_lists":""},{"id":87408,"url":"curate-partners","rank":20,"city":"Stoneham","ifmid":6,"ifiid":21,"growth":10056.5729,"workers":13,"company":"Curate Partners","website":"curatepartners.com","state_l":"Massachusetts","state_s":"MA","revenue":12328556,"zipcode":2180,"founded":2014,"industry":"Human Resources","latitude":42.47421,"metrocode":"Boston-Cambridge-Newton, MA-NH","longitude":-71.09767,"yrs_on_list":1,"previous_workers":7,"metro":"Boston","partner_lists":""},{"id":87409,"url":"figs","rank":21,"city":"Los Angeles","ifmid":2,"ifiid":18,"growth":9947.5655,"workers":45,"company":"FIGS","website":"wearfigs.com","state_l":"California","state_s":"CA","revenue":23115831,"zipcode":90064,"founded":2013,"industry":"Retail","latitude":34.03725,"metrocode":"Los Angeles-Long Beach-Anaheim, CA","longitude":-118.42357,"yrs_on_list":1,"previous_workers":2,"metro":"Los Angeles","partner_lists":""},{"id":70956,"url":"techanax","rank":22,"city":"Woodbridge","ifmid":3,"ifiid":7,"growth":9508.0119,"workers":20,"company":"TechAnax","website":"techanax.com","state_l":"Virginia","state_s":"VA","revenue":24498797,"zipcode":22193,"founded":2012,"industry":"Government Services","latitude":38.6442,"metrocode":"Washington-Arlington-Alexandria, DC-VA-MD-WV","longitude":-77.352,"yrs_on_list":2,"previous_workers":4,"metro":"Washington, DC","partner_lists":""},{"id":87017,"url":"snacknation","rank":24,"city":"Culver City","ifmid":2,"ifiid":11,"growth":9199.5777,"workers":158,"company":"SnackNation","website":"snacknation.com","state_l":"California","state_s":"CA","revenue":16890172,"zipcode":90232,"founded":2014,"industry":"Food & Beverage","latitude":34.01932,"metrocode":"Los Angeles-Long Beach-Anaheim, CA","longitude":-118.3919,"yrs_on_list":1,"previous_workers":5,"metro":"Los Angeles","partner_lists":""},{"id":87410,"url":"brooklinen","rank":25,"city":"Brooklyn","ifmid":9,"ifiid":18,"growth":9154.1993,"workers":22,"company":"Brooklinen","website":"brooklinen.com","state_l":"New York","state_s":"NY","revenue":47864847,"zipcode":11201,"founded":2014,"industry":"Retail","latitude":40.69368,"metrocode":"New York-Newark-Jersey City, NY-NJ-PA","longitude":-73.98969,"yrs_on_list":1,"previous_workers":2,"metro":"New York City","partner_lists":""},{"id":87411,"url":"lo70s","rank":26,"city":"Henderson","ifmid":1004,"ifiid":5,"growth":9153.7815,"workers":9,"company":"Lo70s","website":"lo70s.com","state_l":"Nevada","state_s":"NV","revenue":30263382,"zipcode":89015,"founded":2013,"industry":"Advertising & Marketing","latitude":36.03931,"metrocode":"Las Vegas-Henderson-Paradise, NV","longitude":-114.92803,"yrs_on_list":1,"previous_workers":2,"metro":"Las Vegas, NV","partner_lists":""},{"id":87412,"url":"funded-today","rank":27,"city":"South Ogden","ifmid":204,"ifiid":5,"growth":8797.7051,"workers":55,"company":"Funded Today","website":"funded.today.com","state_l":"Utah","state_s":"UT","revenue":11693542,"zipcode":84403,"founded":2014,"industry":"Advertising & Marketing","latitude":41.21499,"metrocode":"Ogden-Clearfield, UT","longitude":-111.88959,"yrs_on_list":1,"previous_workers":3,"metro":"Ogden-Clearfield, UT","partner_lists":""},{"id":87413,"url":"progyny","rank":28,"city":"New York City","ifmid":9,"ifiid":10,"growth":8675.3088,"workers":89,"company":"Progyny","website":"progyny.com","state_l":"New York","state_s":"NY","revenue":48878470,"zipcode":10016,"founded":2008,"industry":"Health","latitude":40.74522,"metrocode":"New York-Newark-Jersey City, NY-NJ-PA","longitude":-73.9783,"yrs_on_list":1,"previous_workers":66,"metro":"New York City","partner_lists":""},{"id":87414,"url":"shipmonk","rank":29,"city":"Deerfield Beach","ifmid":1,"ifiid":6,"growth":7636.3561,"workers":85,"company":"ShipMonk","website":"shipmonk.com","state_l":"Florida","state_s":"FL","revenue":10570957,"zipcode":33441,"founded":2014,"industry":"Logistics & Transportation","latitude":26.3111,"metrocode":"Miami-Fort Lauderdale-West Palm Beach, FL","longitude":-80.09787,"yrs_on_list":1,"previous_workers":3,"metro":"Miami","partner_lists":"EO"},{"id":87415,"url":"powerinbox","rank":30,"city":"New York City","ifmid":9,"ifiid":9,"growth":7534.2742,"workers":40,"company":"PowerInbox","website":"powerinbox.com","state_l":"New York","state_s":"NY","revenue":18933000,"zipcode":10036,"founded":2012,"industry":"Software","latitude":40.75926,"metrocode":"New York-Newark-Jersey City, NY-NJ-PA","longitude":-73.98986,"yrs_on_list":1,"previous_workers":18,"metro":"New York City","partner_lists":""},{"id":71131,"url":"a-prentice-ray","rank":31,"city":"Washington","ifmid":3,"ifiid":7,"growth":7525.2456,"workers":75,"company":"A. Prentice Ray","website":"aprapros.com","state_l":"District of Columbia","state_s":"DC","revenue":9331318,"zipcode":20001,"founded":2008,"industry":"Government Services","latitude":38.91035,"metrocode":"Washington-Arlington-Alexandria, DC-VA-MD-WV","longitude":-77.01774,"yrs_on_list":2,"previous_workers":3,"metro":"Washington, DC","partner_lists":""},{"id":87416,"url":"mesosphere","rank":32,"city":"San Francisco","ifmid":4,"ifiid":9,"growth":7507.3908,"workers":300,"company":"Mesosphere","website":"mesosphere.com","state_l":"California","state_s":"CA","revenue":28833000,"zipcode":94102,"founded":2013,"industry":"Software","latitude":37.77959,"metrocode":"San Francisco-Oakland-Hayward, CA","longitude":-122.41932,"yrs_on_list":1,"previous_workers":40,"metro":"San Francisco","partner_lists":""},{"id":42960,"url":"big-block-realty","rank":33,"city":"San Diego","ifmid":11,"ifiid":3,"growth":7417.2133,"workers":15,"company":"Big Block Realty","website":"bigblockrealty.com","state_l":"California","state_s":"CA","revenue":47786549,"zipcode":92018,"founded":2012,"industry":"Real Estate","latitude":33.1624,"metrocode":"San Diego-Carlsbad, CA","longitude":-117.3495,"yrs_on_list":3,"previous_workers":1,"metro":"San Diego","partner_lists":""},{"id":87417,"url":"live-oak-contracting","rank":34,"city":"Jacksonville","ifmid":64,"ifiid":20,"growth":7382.3323,"workers":38,"company":"Live Oak Contracting","website":"liveoakcontracting.com","state_l":"Florida","state_s":"FL","revenue":62008931,"zipcode":32202,"founded":2014,"industry":"Construction","latitude":30.32472,"metrocode":"Jacksonville, FL","longitude":-81.6472,"yrs_on_list":1,"previous_workers":9,"metro":"Jacksonville, FL","partner_lists":""},{"id":87418,"url":"fundrise","rank":35,"city":"Washington","ifmid":3,"ifiid":2,"growth":7340.404,"workers":49,"company":"Fundrise","website":"fundrise.com","state_l":"District of Columbia","state_s":"DC","revenue":14732000,"zipcode":20009,"founded":2010,"industry":"Financial Services","latitude":38.91914,"metrocode":"Washington-Arlington-Alexandria, DC-VA-MD-WV","longitude":-77.03738,"yrs_on_list":1,"previous_workers":20,"metro":"Washington, DC","partner_lists":""},{"id":87419,"url":"mindoula","rank":36,"city":"Silver Spring","ifmid":3,"ifiid":10,"growth":7310.0257,"workers":87,"company":"Mindoula","website":"mindoula.com","state_l":"Maryland","state_s":"MD","revenue":7982302,"zipcode":20910,"founded":2013,"industry":"Health","latitude":39.00284,"metrocode":"Washington-Arlington-Alexandria, DC-VA-MD-WV","longitude":-77.0367,"yrs_on_list":1,"previous_workers":6,"metro":"Washington, DC","partner_lists":""},{"id":87420,"url":"grove-collaborative","rank":37,"city":"San Francisco","ifmid":4,"ifiid":4,"growth":7035.6977,"workers":235,"company":"Grove Collaborative","website":"grove.co","state_l":"California","state_s":"CA","revenue":45528677,"zipcode":94109,"founded":2012,"industry":"Consumer Products & Services","latitude":37.79539,"metrocode":"San Francisco-Oakland-Hayward, CA","longitude":-122.42245,"yrs_on_list":1,"previous_workers":8,"metro":"San Francisco","partner_lists":""},{"id":87421,"url":"rockhammer-talent-solutions","rank":38,"city":"Olney","ifmid":3,"ifiid":21,"growth":6952.6697,"workers":80,"company":"Rockhammer Talent Solutions","website":"rockhammerts.com","state_l":"Maryland","state_s":"MD","revenue":11426947,"zipcode":20832,"founded":2013,"industry":"Human Resources","latitude":39.15035,"metrocode":"Washington-Arlington-Alexandria, DC-VA-MD-WV","longitude":-77.07824,"yrs_on_list":1,"previous_workers":2,"metro":"Washington, DC","partner_lists":""},{"id":87422,"url":"trupet","rank":39,"city":"Milford","ifmid":47,"ifiid":18,"growth":6754.2932,"workers":29,"company":"Trupet","website":"trudog.com","state_l":"Ohio","state_s":"OH","revenue":8776237,"zipcode":45150,"founded":2013,"industry":"Retail","latitude":39.16638,"metrocode":"Cincinnati, OH-KY-IN","longitude":-84.23031,"yrs_on_list":1,"previous_workers":5,"metro":"Cincinnati","partner_lists":""},{"id":87423,"url":"diversified-protection","rank":40,"city":"Las Vegas","ifmid":1004,"ifiid":13,"growth":6574.1579,"workers":540,"company":"Diversified Protection","website":"dpcsecurity.com","state_l":"Nevada","state_s":"NV","revenue":36638524,"zipcode":89139,"founded":1999,"industry":"Security","latitude":36.03466,"metrocode":"Las Vegas-Henderson-Paradise, NV","longitude":-115.21166,"yrs_on_list":1,"previous_workers":28,"metro":"Las Vegas, NV","partner_lists":""},{"id":87424,"url":"fox-dealer","rank":41,"city":"Pasadena","ifmid":2,"ifiid":5,"growth":6423.8774,"workers":35,"company":"Fox Dealer","website":"foxdealer.com","state_l":"California","state_s":"CA","revenue":18707936,"zipcode":91105,"founded":2013,"industry":"Advertising & Marketing","latitude":34.13946,"metrocode":"Los Angeles-Long Beach-Anaheim, CA","longitude":-118.16665,"yrs_on_list":1,"previous_workers":5,"metro":"Los Angeles","partner_lists":""},{"id":43002,"url":"ecology-mir-group","rank":42,"city":"Manassas","ifmid":3,"ifiid":7,"growth":6395.4156,"workers":10,"company":"Ecology Mir Group","website":"ecomirgroup.com","state_l":"Virginia","state_s":"VA","revenue":7353395,"zipcode":20109,"founded":2012,"industry":"Government Services","latitude":38.79364,"metrocode":"Washington-Arlington-Alexandria, DC-VA-MD-WV","longitude":-77.53102,"yrs_on_list":3,"previous_workers":2,"metro":"Washington, DC","partner_lists":""},{"id":86966,"url":"homesnap","rank":43,"city":"Rockville","ifmid":3,"ifiid":3,"growth":6336.1956,"workers":60,"company":"Homesnap","website":"homesnap.com","state_l":"Maryland","state_s":"MD","revenue":8463919,"zipcode":20852,"founded":2008,"industry":"Real Estate","latitude":39.05199,"metrocode":"Washington-Arlington-Alexandria, DC-VA-MD-WV","longitude":-77.12193,"yrs_on_list":1,"previous_workers":11,"metro":"Washington, DC","partner_lists":""},{"id":87425,"url":"gitlab","rank":44,"city":"San Francisco","ifmid":4,"ifiid":9,"growth":6212.944,"workers":204,"company":"GitLab","website":"about.gitlab.com","state_l":"California","state_s":"CA","revenue":10464336,"zipcode":94103,"founded":2014,"industry":"Software","latitude":37.77313,"metrocode":"San Francisco-Oakland-Hayward, CA","longitude":-122.41117,"yrs_on_list":1,"previous_workers":7,"metro":"San Francisco","partner_lists":""},{"id":87426,"url":"cura-cannabis-solutions","rank":45,"city":"Portland","ifmid":10,"ifiid":4,"growth":5960.9404,"workers":285,"company":"Cura Cannabis Solutions","website":"curacan.com","state_l":"Oregon","state_s":"OR","revenue":38906995,"zipcode":97214,"founded":2014,"industry":"Consumer Products & Services","latitude":45.51467,"metrocode":"Portland-Vancouver-Beaverton, OR-WA","longitude":-122.64301,"yrs_on_list":1,"previous_workers":15,"metro":"Portland, OR","partner_lists":""},{"id":87427,"url":"edge-logistics","rank":46,"city":"Chicago","ifmid":17,"ifiid":6,"growth":5757.7682,"workers":34,"company":"Edge Logistics","website":"edgelogistics.com","state_l":"Illinois","state_s":"IL","revenue":27707068,"zipcode":60601,"founded":2014,"industry":"Logistics & Transportation","latitude":41.88531,"metrocode":"Chicago-Naperville-Elgin, IL-IN-WI","longitude":-87.62212,"yrs_on_list":1,"previous_workers":7,"metro":"Chicago","partner_lists":""},{"id":87428,"url":"scalelab","rank":47,"city":"Los Angeles","ifmid":2,"ifiid":12,"growth":5686.286,"workers":60,"company":"ScaleLab","website":"scalelab.com","state_l":"California","state_s":"CA","revenue":27247563,"zipcode":90025,"founded":2013,"industry":"Media","latitude":34.04542,"metrocode":"Los Angeles-Long Beach-Anaheim, CA","longitude":-118.44587,"yrs_on_list":1,"previous_workers":8,"metro":"Los Angeles","partner_lists":""},{"id":87429,"url":"mindful-health","rank":48,"city":"Evergreen","ifmid":30,"ifiid":10,"growth":5463.2735,"workers":55,"company":"Mindful Health","website":"danettemay.com","state_l":"Colorado","state_s":"CO","revenue":19707062,"zipcode":80439,"founded":2012,"industry":"Health","latitude":39.63442,"metrocode":"Denver-Aurora-Lakewood, CO","longitude":-105.44025,"yrs_on_list":1,"previous_workers":6,"metro":"Denver","partner_lists":"Vistage"},{"id":42946,"url":"pantherx-specialty-pharmacy","rank":49,"city":"Pittsburgh","ifmid":52,"ifiid":10,"growth":5435.9277,"workers":92,"company":"PANTHERx Specialty Pharmacy","website":"pantherspecialty.com","state_l":"Pennsylvania","state_s":"PA","revenue":454329217,"zipcode":15275,"founded":2011,"industry":"Health","latitude":40.4549,"metrocode":"Pittsburgh, PA","longitude":-80.1897,"yrs_on_list":3,"previous_workers":15,"metro":"Pittsburgh, PA","partner_lists":""},{"id":87430,"url":"ubiome","rank":50,"city":"San Francisco","ifmid":4,"ifiid":10,"growth":5422.5927,"workers":180,"company":"uBiome","website":"ubiome.com","state_l":"California","state_s":"CA","revenue":32076875,"zipcode":94103,"founded":2012,"industry":"Health","latitude":37.77313,"metrocode":"San Francisco-Oakland-Hayward, CA","longitude":-122.41117,"yrs_on_list":1,"previous_workers":8,"metro":"San Francisco","partner_lists":""},{"id":87431,"url":"washington-business-dynamics","rank":51,"city":"Washington","ifmid":3,"ifiid":7,"growth":5170.4816,"workers":34,"company":"Washington Business Dynamics","website":"wbdynamics.com","state_l":"District of Columbia","state_s":"DC","revenue":7053591,"zipcode":20001,"founded":2012,"industry":"Government Services","latitude":38.91035,"metrocode":"Washington-Arlington-Alexandria, DC-VA-MD-WV","longitude":-77.01774,"yrs_on_list":1,"previous_workers":1,"metro":"Washington, DC","partner_lists":""},{"id":87432,"url":"digital-hyve","rank":52,"city":"Syracuse","ifmid":77,"ifiid":5,"growth":5064.4428,"workers":24,"company":"Digital Hyve","website":"digitalhyve.com","state_l":"New York","state_s":"NY","revenue":5170227,"zipcode":13202,"founded":2014,"industry":"Advertising & Marketing","latitude":43.04378,"metrocode":"Syracuse, NY","longitude":-76.15064,"yrs_on_list":1,"previous_workers":2,"metro":"","partner_lists":""},{"id":70691,"url":"homestar-remodeling","rank":53,"city":"Wilmington","ifmid":49,"ifiid":20,"growth":4922.6642,"workers":47,"company":"HomeStar Remodeling","website":"homestarremodeling.com","state_l":"Delaware","state_s":"DE","revenue":5324024,"zipcode":19809,"founded":2013,"industry":"Construction","latitude":39.75779,"metrocode":"Philadelphia-Camden-Wilmington, PA-NJ-DE-MD","longitude":-75.50095,"yrs_on_list":2,"previous_workers":8,"metro":"Philadelphia","partner_lists":""},{"id":87433,"url":"infusemedia","rank":54,"city":"Newton","ifmid":6,"ifiid":5,"growth":4889.2466,"workers":250,"company":"INFUSEmedia","website":"infusemedia.com","state_l":"Massachusetts","state_s":"MA","revenue":5318038,"zipcode":2458,"founded":2012,"industry":"Advertising & Marketing","latitude":42.35359,"metrocode":"Boston-Cambridge-Newton, MA-NH","longitude":-71.18819,"yrs_on_list":1,"previous_workers":15,"metro":"Boston","partner_lists":""},{"id":87434,"url":"affordable-luxury-group","rank":55,"city":"New York City","ifmid":9,"ifiid":4,"growth":4796.8922,"workers":21,"company":"Affordable Luxury Group","website":"affordableluxurygroup.com","state_l":"New York","state_s":"NY","revenue":16521184,"zipcode":10001,"founded":2014,"industry":"Consumer Products & Services","latitude":40.75063,"metrocode":"New York-Newark-Jersey City, NY-NJ-PA","longitude":-73.99718,"yrs_on_list":1,"previous_workers":2,"metro":"New York City","partner_lists":""},{"id":87435,"url":"taft","rank":56,"city":"Provo","ifmid":48,"ifiid":4,"growth":4794.5728,"workers":8,"company":"TAFT","website":"taftclothing.com","state_l":"Utah","state_s":"UT","revenue":5667328,"zipcode":84604,"founded":2014,"industry":"Consumer Products & Services","latitude":40.31866,"metrocode":"Provo-Orem, UT","longitude":-111.57696,"yrs_on_list":1,"previous_workers":1,"metro":"Provo-Orem, UT","partner_lists":""},{"id":87436,"url":"experimac","rank":57,"city":"West Palm Beach","ifmid":1,"ifiid":25,"growth":4787.8834,"workers":348,"company":"Experimac","website":"experimac.com","state_l":"Florida","state_s":"FL","revenue":12449439,"zipcode":33411,"founded":2012,"industry":"Computer Hardware","latitude":26.72001,"metrocode":"Miami-Fort Lauderdale-West Palm Beach, FL","longitude":-80.19315,"yrs_on_list":1,"previous_workers":2,"metro":"Miami","partner_lists":""},{"id":43464,"url":"momentum-solar","rank":58,"city":"Metuchen","ifmid":9,"ifiid":16,"growth":4617.4707,"workers":606,"company":"Momentum Solar","website":"momentumsolar.com","state_l":"New Jersey","state_s":"NJ","revenue":107461199,"zipcode":8840,"founded":2009,"industry":"Energy","latitude":40.54314,"metrocode":"New York-Newark-Jersey City, NY-NJ-PA","longitude":-74.35898,"yrs_on_list":3,"previous_workers":9,"metro":"New York City","partner_lists":""},{"id":71336,"url":"talex","rank":59,"city":"Washington","ifmid":3,"ifiid":21,"growth":4572.722,"workers":335,"company":"TalEx","website":"teamtalex.com","state_l":"District of Columbia","state_s":"DC","revenue":29979250,"zipcode":20009,"founded":2012,"industry":"Human Resources","latitude":38.91914,"metrocode":"Washington-Arlington-Alexandria, DC-VA-MD-WV","longitude":-77.03738,"yrs_on_list":2,"previous_workers":14,"metro":"Washington, DC","partner_lists":""},{"id":87437,"url":"soci","rank":60,"city":"San Diego","ifmid":11,"ifiid":17,"growth":4570.7549,"workers":64,"company":"SOCi","website":"meetsoci.com","state_l":"Arkansas","state_s":"AR","revenue":4903919,"zipcode":92101,"founded":2012,"industry":"Business Products & Services","latitude":32.7241,"metrocode":"San Diego-Carlsbad, CA","longitude":-117.17091,"yrs_on_list":1,"previous_workers":6,"metro":"San Diego","partner_lists":""},{"id":87438,"url":"recommerce","rank":61,"city":"Boca Raton","ifmid":1,"ifiid":17,"growth":4546.7962,"workers":25,"company":"reCommerce","website":"recommercebrands.com","state_l":"Florida","state_s":"FL","revenue":11252124,"zipcode":33432,"founded":2013,"industry":"Business Products & Services","latitude":26.3439,"metrocode":"Miami-Fort Lauderdale-West Palm Beach, FL","longitude":-80.08273,"yrs_on_list":1,"previous_workers":2,"metro":"Miami","partner_lists":""},{"id":81417,"url":"solvix-solutions","rank":62,"city":"Mount Laurel","ifmid":49,"ifiid":25,"growth":4477.6597,"workers":9,"company":"Solvix Solutions","website":"solvixsolutions.com","state_l":"New Jersey","state_s":"NJ","revenue":14144419,"zipcode":8054,"founded":2013,"industry":"Computer Hardware","latitude":39.94899,"metrocode":"Philadelphia-Camden-Wilmington, PA-NJ-DE-MD","longitude":-74.90025,"yrs_on_list":1,"previous_workers":2,"metro":"Philadelphia","partner_lists":""},{"id":71891,"url":"core-software-technologies","rank":63,"city":"Plainsboro","ifmid":9,"ifiid":28,"growth":4475.3799,"workers":55,"company":"Core Software Technologies","website":"coresofttech.com","state_l":"New Jersey","state_s":"NJ","revenue":6720318,"zipcode":8536,"founded":2011,"industry":"IT Management","latitude":40.33229,"metrocode":"New York-Newark-Jersey City, NY-NJ-PA","longitude":-74.58108,"yrs_on_list":2,"previous_workers":1,"metro":"New York City","partner_lists":""},{"id":86919,"url":"argus-merchant-services","rank":64,"city":"New York City","ifmid":9,"ifiid":2,"growth":4455.9426,"workers":25,"company":"Argus Merchant Services","website":"argusinvision.com","state_l":"New York","state_s":"NY","revenue":6453356,"zipcode":10005,"founded":2014,"industry":"Financial Services","latitude":40.70603,"metrocode":"New York-Newark-Jersey City, NY-NJ-PA","longitude":-74.00884,"yrs_on_list":1,"previous_workers":4,"metro":"New York City","partner_lists":""},{"id":87315,"url":"project-x","rank":65,"city":"New York City","ifmid":9,"ifiid":5,"growth":4411.0394,"workers":26,"company":"Project X","website":"pjxmedia.com","state_l":"New York","state_s":"NY","revenue":51851376,"zipcode":10013,"founded":2010,"industry":"Advertising & Marketing","latitude":40.7201,"metrocode":"New York-Newark-Jersey City, NY-NJ-PA","longitude":-74.0049,"yrs_on_list":1,"previous_workers":10,"metro":"New York City","partner_lists":""},{"id":87439,"url":"goguardian","rank":66,"city":"El Segundo","ifmid":2,"ifiid":19,"growth":4409.0937,"workers":108,"company":"GoGuardian","website":"goguardian.com","state_l":"California","state_s":"CA","revenue":14723679,"zipcode":90245,"founded":2014,"industry":"Education","latitude":33.91714,"metrocode":"Los Angeles-Long Beach-Anaheim, CA","longitude":-118.40427,"yrs_on_list":1,"previous_workers":6,"metro":"Los Angeles","partner_lists":""},{"id":87344,"url":"monkedia","rank":67,"city":"Irving","ifmid":8,"ifiid":5,"growth":4394.871,"workers":30,"company":"Monkedia","website":"monkedia.com","state_l":"Texas","state_s":"TX","revenue":12007014,"zipcode":75039,"founded":2014,"industry":"Advertising & Marketing","latitude":32.88561,"metrocode":"Dallas-Fort Worth-Arlington, TX","longitude":-96.94266,"yrs_on_list":1,"previous_workers":1,"metro":"Dallas","partner_lists":""},{"id":87440,"url":"pax8","rank":68,"city":"Greenwood Village","ifmid":30,"ifiid":9,"growth":4393.0002,"workers":135,"company":"Pax8","website":"pax8.com","state_l":"Colorado","state_s":"CO","revenue":10992799,"zipcode":80111,"founded":2012,"industry":"Software","latitude":39.61301,"metrocode":"Denver-Aurora-Lakewood, CO","longitude":-104.87796,"yrs_on_list":1,"previous_workers":18,"metro":"Denver","partner_lists":""},{"id":87441,"url":"fundera","rank":69,"city":"New York City","ifmid":9,"ifiid":2,"growth":4336.4928,"workers":65,"company":"Fundera","website":"fundera.com","state_l":"New York","state_s":"NY","revenue":8754620,"zipcode":10038,"founded":2014,"industry":"Financial Services","latitude":40.70928,"metrocode":"New York-Newark-Jersey City, NY-NJ-PA","longitude":-74.00256,"yrs_on_list":1,"previous_workers":17,"metro":"New York City","partner_lists":""},{"id":87442,"url":"clean-energy-solutions","rank":70,"city":"San Dimas","ifmid":2,"ifiid":16,"growth":4330.9909,"workers":20,"company":"Clean Energy Solutions","website":"cleanenergysolar.org","state_l":"California","state_s":"CA","revenue":4741692,"zipcode":91773,"founded":2013,"industry":"Energy","latitude":34.11019,"metrocode":"Los Angeles-Long Beach-Anaheim, CA","longitude":-117.81039,"yrs_on_list":1,"previous_workers":2,"metro":"Los Angeles","partner_lists":""},{"id":87443,"url":"compass","rank":71,"city":"New York City","ifmid":9,"ifiid":3,"growth":4309.095,"workers":464,"company":"Compass","website":"compass.com","state_l":"New York","state_s":"NY","revenue":370560142,"zipcode":10011,"founded":2012,"industry":"Real Estate","latitude":40.74204,"metrocode":"New York-Newark-Jersey City, NY-NJ-PA","longitude":-74.00062,"yrs_on_list":1,"previous_workers":98,"metro":"New York City","partner_lists":""},{"id":87444,"url":"convertkit","rank":72,"city":"Boise","ifmid":159,"ifiid":9,"growth":4269.5432,"workers":30,"company":"ConvertKit","website":"convertkit.com","state_l":"Idaho","state_s":"ID","revenue":9278288,"zipcode":83709,"founded":2013,"industry":"Software","latitude":43.55111,"metrocode":"Boise City-Nampa, ID","longitude":-116.29008,"yrs_on_list":1,"previous_workers":2,"metro":"Boise City-Nampa, ID","partner_lists":""},{"id":43033,"url":"mountain-state-software-solutions","rank":73,"city":"Ranson","ifmid":3,"ifiid":29,"growth":4244.4453,"workers":42,"company":"Mountain State Software Solutions","website":"ms3-inc.com","state_l":"West Virginia","state_s":"WV","revenue":7691015,"zipcode":25414,"founded":2009,"industry":"IT System Development","latitude":39.24242,"metrocode":"Washington-Arlington-Alexandria, DC-VA-MD-WV","longitude":-77.86575,"yrs_on_list":2,"previous_workers":2,"metro":"Washington, DC","partner_lists":""},{"id":87445,"url":"rrds","rank":74,"city":"Irvine","ifmid":2,"ifiid":7,"growth":4241.634,"workers":18,"company":"RRDS","website":"rrds.com","state_l":"California","state_s":"CA","revenue":16343864,"zipcode":92618,"founded":2014,"industry":"Government Services","latitude":33.66694,"metrocode":"Los Angeles-Long Beach-Anaheim, CA","longitude":-117.73209,"yrs_on_list":1,"previous_workers":3,"metro":"Los Angeles","partner_lists":""},{"id":86947,"url":"cloudbeds","rank":75,"city":"San Diego","ifmid":11,"ifiid":22,"growth":4241.5057,"workers":149,"company":"Cloudbeds","website":"cloudbeds.com","state_l":"California","state_s":"CA","revenue":4392996,"zipcode":92103,"founded":2012,"industry":"Travel & Hospitality","latitude":32.74741,"metrocode":"San Diego-Carlsbad, CA","longitude":-117.16688,"yrs_on_list":1,"previous_workers":21,"metro":"San Diego","partner_lists":""},{"id":87446,"url":"clickfunnels","rank":76,"city":"Eagle","ifmid":159,"ifiid":9,"growth":4232.1338,"workers":62,"company":"ClickFunnels","website":"clickfunnels.com","state_l":"Idaho","state_s":"ID","revenue":63888879,"zipcode":83616,"founded":2014,"industry":"Software","latitude":43.77556,"metrocode":"Boise City-Nampa, ID","longitude":-116.39492,"yrs_on_list":1,"previous_workers":9,"metro":"Boise City-Nampa, ID","partner_lists":""},{"id":87447,"url":"qeo-group","rank":77,"city":"Irving","ifmid":8,"ifiid":1,"growth":4206.3188,"workers":78,"company":"QEO Group","website":"qeo.com","state_l":"Texas","state_s":"TX","revenue":29302217,"zipcode":75039,"founded":2014,"industry":"Insurance","latitude":32.88561,"metrocode":"Dallas-Fort Worth-Arlington, TX","longitude":-96.94266,"yrs_on_list":1,"previous_workers":5,"metro":"Dallas","partner_lists":""},{"id":87448,"url":"case-energy-partners","rank":78,"city":"Dallas","ifmid":8,"ifiid":16,"growth":4174.3151,"workers":15,"company":"Case Energy Partners","website":"caseenergypartners.com","state_l":"Texas","state_s":"TX","revenue":4586853,"zipcode":75360,"founded":2012,"industry":"Energy","latitude":32.8491,"metrocode":"Dallas-Fort Worth-Arlington, TX","longitude":-96.77,"yrs_on_list":1,"previous_workers":2,"metro":"Dallas","partner_lists":""},{"id":87449,"url":"namely","rank":79,"city":"New York City","ifmid":9,"ifiid":21,"growth":4096.6035,"workers":417,"company":"Namely","website":"namely.com","state_l":"New York","state_s":"NY","revenue":34789843,"zipcode":10007,"founded":2012,"industry":"Human Resources","latitude":40.71385,"metrocode":"New York-Newark-Jersey City, NY-NJ-PA","longitude":-74.00776,"yrs_on_list":1,"previous_workers":68,"metro":"New York City","partner_lists":""},{"id":87379,"url":"y7-studio","rank":80,"city":"New York City","ifmid":9,"ifiid":4,"growth":4021.6583,"workers":200,"company":"Y7 Studio","website":"y7-studio.com","state_l":"New York","state_s":"NY","revenue":5612627,"zipcode":10012,"founded":2013,"industry":"Consumer Products & Services","latitude":40.72558,"metrocode":"New York-Newark-Jersey City, NY-NJ-PA","longitude":-73.99808,"yrs_on_list":1,"previous_workers":2,"metro":"New York City","partner_lists":""},{"id":87450,"url":"vigene-biosciences","rank":81,"city":"Rockville","ifmid":3,"ifiid":10,"growth":3949.1048,"workers":35,"company":"Vigene Biosciences","website":"vigenebio.com","state_l":"Maryland","state_s":"MD","revenue":6149416,"zipcode":20852,"founded":2012,"industry":"Health","latitude":39.05199,"metrocode":"Washington-Arlington-Alexandria, DC-VA-MD-WV","longitude":-77.12193,"yrs_on_list":1,"previous_workers":3,"metro":"Washington, DC","partner_lists":""},{"id":87451,"url":"zpower","rank":82,"city":"Camarillo","ifmid":67,"ifiid":16,"growth":3945.582,"workers":256,"company":"ZPower","website":"zpowerbattery.com","state_l":"California","state_s":"CA","revenue":26454344,"zipcode":93012,"founded":1996,"industry":"Energy","latitude":34.19603,"metrocode":"Oxnard-Thousand Oaks-Ventura, CA","longitude":-118.99253,"yrs_on_list":1,"previous_workers":50,"metro":"Oxnard-Thousand Oaks-Ventura, CA","partner_lists":""},{"id":68721,"url":"adcellerant","rank":83,"city":"Denver","ifmid":30,"ifiid":5,"growth":3945.003,"workers":28,"company":"AdCellerant","website":"adcellerant.com","state_l":"Colorado","state_s":"CO","revenue":8928171,"zipcode":80206,"founded":2013,"industry":"Advertising & Marketing","latitude":39.73028,"metrocode":"Denver-Aurora-Lakewood, CO","longitude":-104.95259,"yrs_on_list":1,"previous_workers":3,"metro":"Denver","partner_lists":""},{"id":87452,"url":"pine-gate-renewables","rank":84,"city":"Jacksonville Beach","ifmid":43,"ifiid":16,"growth":3940.4167,"workers":52,"company":"Pine Gate Renewables","website":"pgrenewables.com","state_l":"Florida","state_s":"FL","revenue":9697000,"zipcode":32250,"founded":2014,"industry":"Energy","latitude":30.28056,"metrocode":"Charlotte-Concord-Gastonia, NC-SC","longitude":-81.41207,"yrs_on_list":1,"previous_workers":1,"metro":"Charlotte","partner_lists":""},{"id":87453,"url":"neu","rank":85,"city":"Philadelphia","ifmid":49,"ifiid":18,"growth":3923.6175,"workers":24,"company":"NEU","website":"whatsneu.com","state_l":"Pennsylvania","state_s":"PA","revenue":6965244,"zipcode":19104,"founded":2012,"industry":"Retail","latitude":39.95852,"metrocode":"Philadelphia-Camden-Wilmington, PA-NJ-DE-MD","longitude":-75.19886,"yrs_on_list":1,"previous_workers":1,"metro":"Philadelphia","partner_lists":""},{"id":43398,"url":"boomsourcing","rank":86,"city":"Lehi","ifmid":48,"ifiid":17,"growth":3917.7323,"workers":506,"company":"Boomsourcing","website":"boomsourcing.com","state_l":"Utah","state_s":"UT","revenue":9723997,"zipcode":84043,"founded":2007,"industry":"Business Products & Services","latitude":40.41076,"metrocode":"Provo-Orem, UT","longitude":-111.87679,"yrs_on_list":3,"previous_workers":108,"metro":"Provo-Orem, UT","partner_lists":""},{"id":87454,"url":"pawstruck","rank":87,"city":"Long Beach","ifmid":2,"ifiid":18,"growth":3891.1496,"workers":6,"company":"Pawstruck","website":"pawstruck.com","state_l":"California","state_s":"CA","revenue":4058161,"zipcode":90806,"founded":2014,"industry":"Retail","latitude":33.8054,"metrocode":"Los Angeles-Long Beach-Anaheim, CA","longitude":-118.1877,"yrs_on_list":1,"previous_workers":1,"metro":"Los Angeles","partner_lists":""},{"id":87455,"url":"amaryllis-apparel","rank":88,"city":"Irvine","ifmid":2,"ifiid":18,"growth":3882.2845,"workers":20,"company":"Amaryllis Apparel","website":"amaryllisapparel.com","state_l":"California","state_s":"CA","revenue":11151870,"zipcode":92618,"founded":2014,"industry":"Retail","latitude":33.66694,"metrocode":"Los Angeles-Long Beach-Anaheim, CA","longitude":-117.73209,"yrs_on_list":1,"previous_workers":2,"metro":"Los Angeles","partner_lists":""},{"id":87456,"url":"apex-air","rank":89,"city":"Vancouver","ifmid":10,"ifiid":20,"growth":3841.6916,"workers":45,"company":"Apex Air","website":"apexairco.com","state_l":"Washington","state_s":"WA","revenue":11550733,"zipcode":98686,"founded":2014,"industry":"Construction","latitude":45.72339,"metrocode":"Portland-Vancouver-Beaverton, OR-WA","longitude":-122.6244,"yrs_on_list":1,"previous_workers":3,"metro":"Portland, OR","partner_lists":""},{"id":87457,"url":"healpros","rank":90,"city":"Atlanta","ifmid":29,"ifiid":10,"growth":3823.661,"workers":67,"company":"HealPros","website":"healpros.com","state_l":"Georgia","state_s":"GA","revenue":8797672,"zipcode":30326,"founded":2011,"industry":"Health","latitude":33.84952,"metrocode":"Atlanta-Sandy Springs-Roswell, GA","longitude":-84.36397,"yrs_on_list":1,"previous_workers":7,"metro":"Atlanta","partner_lists":""},{"id":87458,"url":"real-plans","rank":91,"city":"Los Angeles","ifmid":2,"ifiid":11,"growth":3767.927,"workers":19,"company":"Real Plans","website":"realplans.com","state_l":"California","state_s":"CA","revenue":4188230,"zipcode":90066,"founded":2014,"industry":"Food & Beverage","latitude":34.00203,"metrocode":"Los Angeles-Long Beach-Anaheim, CA","longitude":-118.43066,"yrs_on_list":1,"previous_workers":1,"metro":"Los Angeles","partner_lists":""},{"id":87459,"url":"impact-mailers","rank":92,"city":"Marietta","ifmid":29,"ifiid":5,"growth":3764.733,"workers":7,"company":"Impact Mailers","website":"impactmailers.com","state_l":"Georgia","state_s":"GA","revenue":4618240,"zipcode":30062,"founded":2013,"industry":"Advertising & Marketing","latitude":34.00558,"metrocode":"Atlanta-Sandy Springs-Roswell, GA","longitude":-84.46895,"yrs_on_list":1,"previous_workers":2,"metro":"Atlanta","partner_lists":""},{"id":71031,"url":"thought-logic-consulting","rank":93,"city":"Atlanta","ifmid":29,"ifiid":17,"growth":3751.6318,"workers":53,"company":"Thought Logic Consulting","website":"thought-logic.com","state_l":"Georgia","state_s":"GA","revenue":11231936,"zipcode":30326,"founded":2013,"industry":"Business Products & Services","latitude":33.84952,"metrocode":"Atlanta-Sandy Springs-Roswell, GA","longitude":-84.36397,"yrs_on_list":2,"previous_workers":6,"metro":"Atlanta","partner_lists":""},{"id":87460,"url":"snaps","rank":94,"city":"New York City","ifmid":9,"ifiid":9,"growth":3733.176,"workers":38,"company":"Snaps","website":"snaps.io","state_l":"New York","state_s":"NY","revenue":5596437,"zipcode":10010,"founded":2010,"industry":"Software","latitude":40.73906,"metrocode":"New York-Newark-Jersey City, NY-NJ-PA","longitude":-73.98225,"yrs_on_list":1,"previous_workers":10,"metro":"New York City","partner_lists":""},{"id":70881,"url":"club-pilates-franchise","rank":95,"city":"Irvine","ifmid":2,"ifiid":4,"growth":3728.3702,"workers":40,"company":"Club Pilates Franchise","website":"clubpilatesfranchise.com","state_l":"California","state_s":"CA","revenue":27185793,"zipcode":92614,"founded":2007,"industry":"Consumer Products & Services","latitude":33.6803,"metrocode":"Los Angeles-Long Beach-Anaheim, CA","longitude":-117.8333,"yrs_on_list":2,"previous_workers":5,"metro":"Los Angeles","partner_lists":""},{"id":43055,"url":"knowbe4","rank":96,"city":"Clearwater","ifmid":7,"ifiid":28,"growth":3725.6564,"workers":384,"company":"KnowBe4","website":"knowbe4.com","state_l":"Florida","state_s":"FL","revenue":64472601,"zipcode":33755,"founded":2010,"industry":"IT Management","latitude":27.97991,"metrocode":"Tampa-St. Petersburg-Clearwater, FL","longitude":-82.78051,"yrs_on_list":3,"previous_workers":18,"metro":"Tampa","partner_lists":""},{"id":87461,"url":"peloton","rank":97,"city":"New York City","ifmid":9,"ifiid":18,"growth":3710.7823,"workers":872,"company":"Peloton","website":"onepeloton.com","state_l":"New York","state_s":"NY","revenue":328337000,"zipcode":10001,"founded":2012,"industry":"Retail","latitude":40.75063,"metrocode":"New York-Newark-Jersey City, NY-NJ-PA","longitude":-73.99718,"yrs_on_list":1,"previous_workers":131,"metro":"New York City","partner_lists":""},{"id":87462,"url":"swarm","rank":98,"city":"Miami","ifmid":1,"ifiid":5,"growth":3681.2703,"workers":35,"company":"SWARM","website":"swarminc.com","state_l":"Florida","state_s":"FL","revenue":11343811,"zipcode":33127,"founded":2014,"industry":"Advertising & Marketing","latitude":25.81318,"metrocode":"Miami-Fort Lauderdale-West Palm Beach, FL","longitude":-80.20581,"yrs_on_list":1,"previous_workers":4,"metro":"Miami","partner_lists":""},{"id":87463,"url":"andusllcandus-health-benefits","rank":99,"city":"Conshohocken","ifmid":49,"ifiid":1,"growth":3637.827,"workers":14,"company":"AndusLLC/Andus Health Benefits","website":"andusllc.com","state_l":"Pennsylvania","state_s":"PA","revenue":3915000,"zipcode":19428,"founded":2014,"industry":"Insurance","latitude":40.08034,"metrocode":"Philadelphia-Camden-Wilmington, PA-NJ-DE-MD","longitude":-75.30046,"yrs_on_list":1,"previous_workers":1,"metro":"Philadelphia","partner_lists":""},{"id":87464,"url":"adsugar","rank":100,"city":"Martinsville","ifmid":9,"ifiid":5,"growth":3636.4414,"workers":15,"company":"Adsugar","website":"adsugar.com","state_l":"New Jersey","state_s":"NJ","revenue":20000573,"zipcode":8836,"founded":1999,"industry":"Advertising & Marketing","latitude":40.59638,"metrocode":"New York-Newark-Jersey City, NY-NJ-PA","longitude":-74.55732,"yrs_on_list":1,"previous_workers":5,"metro":"New York City","partner_lists":""},{"id":72281,"url":"recleim","rank":101,"city":"Atlanta","ifmid":29,"ifiid":23,"growth":3621.2134,"workers":240,"company":"Recleim","website":"recleim.com","state_l":"Georgia","state_s":"GA","revenue":36141876,"zipcode":30342,"founded":2012,"industry":"Environmental Services","latitude":33.88218,"metrocode":"Atlanta-Sandy Springs-Roswell, GA","longitude":-84.37529,"yrs_on_list":2,"previous_workers":70,"metro":"Atlanta","partner_lists":""},{"id":87465,"url":"skillset-group","rank":102,"city":"Santa Ana","ifmid":2,"ifiid":21,"growth":3568.581,"workers":34,"company":"SkillSet Group","website":"skillsetgroup.com","state_l":"California","state_s":"CA","revenue":8924777,"zipcode":92704,"founded":2013,"industry":"Human Resources","latitude":33.72113,"metrocode":"Los Angeles-Long Beach-Anaheim, CA","longitude":-117.90511,"yrs_on_list":1,"previous_workers":3,"metro":"Los Angeles","partner_lists":""},{"id":87466,"url":"the-media-manager","rank":103,"city":"Rochester","ifmid":176,"ifiid":5,"growth":3562.4754,"workers":5,"company":"The Media Manager","website":"themediamgr.com","state_l":"Minnesota","state_s":"MN","revenue":7059934,"zipcode":55901,"founded":2014,"industry":"Advertising & Marketing","latitude":44.06982,"metrocode":"Rochester, MN","longitude":-92.50658,"yrs_on_list":1,"previous_workers":1,"metro":"","partner_lists":""},{"id":87467,"url":"asset-panda","rank":104,"city":"Frisco","ifmid":8,"ifiid":9,"growth":3551.801,"workers":32,"company":"Asset Panda","website":"asset pandaassetpanda.com","state_l":"Texas","state_s":"TX","revenue":4397937,"zipcode":75034,"founded":2012,"industry":"Software","latitude":33.14664,"metrocode":"Dallas-Fort Worth-Arlington, TX","longitude":-96.85582,"yrs_on_list":1,"previous_workers":2,"metro":"Dallas","partner_lists":""},{"id":87468,"url":"united-trans-group","rank":105,"city":"Bensenville","ifmid":17,"ifiid":6,"growth":3543.0121,"workers":4,"company":"United Trans Group","website":"unitedtg.com","state_l":"Illinois","state_s":"IL","revenue":4403673,"zipcode":60106,"founded":2014,"industry":"Logistics & Transportation","latitude":41.9597,"metrocode":"Chicago-Naperville-Elgin, IL-IN-WI","longitude":-87.94183,"yrs_on_list":1,"previous_workers":1,"metro":"Chicago","partner_lists":""},{"id":87469,"url":"love-your-melon","rank":106,"city":"Minneapolis","ifmid":13,"ifiid":18,"growth":3536.9056,"workers":29,"company":"Love Your Melon","website":"loveyourmelon.com","state_l":"Minnesota","state_s":"MN","revenue":31493348,"zipcode":55401,"founded":2012,"industry":"Retail","latitude":44.98458,"metrocode":"Minneapolis-St. Paul-Bloomington, MN-WI","longitude":-93.2691,"yrs_on_list":1,"previous_workers":2,"metro":"Minneapolis","partner_lists":""},{"id":87470,"url":"broadly","rank":107,"city":"Oakland","ifmid":4,"ifiid":9,"growth":3528.539,"workers":84,"company":"Broadly","website":"broadly.com","state_l":"California","state_s":"CA","revenue":4716375,"zipcode":94612,"founded":2013,"industry":"Software","latitude":37.8088,"metrocode":"San Francisco-Oakland-Hayward, CA","longitude":-122.2692,"yrs_on_list":1,"previous_workers":6,"metro":"San Francisco","partner_lists":""},{"id":87471,"url":"needwant","rank":108,"city":"St Louis","ifmid":74,"ifiid":18,"growth":3505.682,"workers":8,"company":"Need/Want","website":"needwant.com","state_l":"Missouri","state_s":"MO","revenue":4987776,"zipcode":63105,"founded":2014,"industry":"Retail","latitude":38.64431,"metrocode":"St. Louis, MO-IL","longitude":-90.3282,"yrs_on_list":1,"previous_workers":3,"metro":"St. Louis, MO-IL","partner_lists":""},{"id":87472,"url":"1world-online","rank":109,"city":"Palo Alto","ifmid":20,"ifiid":9,"growth":3488.6102,"workers":31,"company":"1World Online","website":"welcome.1worldonline.com","state_l":"California","state_s":"CA","revenue":8187450,"zipcode":94303,"founded":2011,"industry":"Software","latitude":37.45788,"metrocode":"San Jose-Sunnyvale-Santa Clara, CA","longitude":-122.11516,"yrs_on_list":1,"previous_workers":24,"metro":"San Jose","partner_lists":""},{"id":87473,"url":"freightsaver","rank":110,"city":"Huntington Beach","ifmid":2,"ifiid":6,"growth":3481.8184,"workers":22,"company":"FreightSaver","website":"freightsaver.com","state_l":"California","state_s":"CA","revenue":17499762,"zipcode":92647,"founded":2014,"industry":"Logistics & Transportation","latitude":33.72323,"metrocode":"Los Angeles-Long Beach-Anaheim, CA","longitude":-118.00869,"yrs_on_list":1,"previous_workers":5,"metro":"Los Angeles","partner_lists":""},{"id":87474,"url":"equinox-international-new-york","rank":111,"city":"Valley Stream","ifmid":9,"ifiid":18,"growth":3481.1236,"workers":15,"company":"Equinox International (New York)","website":"equinoxintbrands.com","state_l":"New York","state_s":"NY","revenue":18115221,"zipcode":11581,"founded":2014,"industry":"Retail","latitude":40.65103,"metrocode":"New York-Newark-Jersey City, NY-NJ-PA","longitude":-73.71533,"yrs_on_list":1,"previous_workers":1,"metro":"New York City","partner_lists":""},{"id":87346,"url":"elite-insurance-partners","rank":112,"city":"Clearwater","ifmid":7,"ifiid":1,"growth":3458.3271,"workers":28,"company":"Elite Insurance Partners","website":"medicarefaq.com","state_l":"Florida","state_s":"FL","revenue":3627074,"zipcode":33759,"founded":2013,"industry":"Insurance","latitude":27.97528,"metrocode":"Tampa-St. Petersburg-Clearwater, FL","longitude":-82.70148,"yrs_on_list":1,"previous_workers":4,"metro":"Tampa","partner_lists":""},{"id":87475,"url":"five-doors-network","rank":113,"city":"Baltimore","ifmid":35,"ifiid":3,"growth":3425.7729,"workers":30,"company":"Five Doors Network","website":"fivedoors.com","state_l":"Maryland","state_s":"MD","revenue":10000326,"zipcode":21208,"founded":2014,"industry":"Real Estate","latitude":39.38117,"metrocode":"Baltimore-Columbia-Towson, MD","longitude":-76.721,"yrs_on_list":1,"previous_workers":2,"metro":"Baltimore","partner_lists":""},{"id":87476,"url":"parrish-and-partners","rank":114,"city":"Columbia","ifmid":276,"ifiid":24,"growth":3421.8297,"workers":60,"company":"Parrish and Partners","website":"parrishandpartners.com","state_l":"South Carolina","state_s":"SC","revenue":18607552,"zipcode":29202,"founded":2013,"industry":"Engineering","latitude":33.99356,"metrocode":"Columbia, SC","longitude":-81.031,"yrs_on_list":1,"previous_workers":26,"metro":"Columbia, SC","partner_lists":""},{"id":71316,"url":"moore-advanced","rank":115,"city":"Memphis","ifmid":105,"ifiid":6,"growth":3390.6425,"workers":1641,"company":"Moore Advanced","website":"mooreadvanced.info","state_l":"Tennessee","state_s":"TN","revenue":12618149,"zipcode":38141,"founded":2013,"industry":"Logistics & Transportation","latitude":35.01365,"metrocode":"Memphis, TN","longitude":-89.85694,"yrs_on_list":2,"previous_workers":84,"metro":"","partner_lists":""},{"id":42947,"url":"fedbiz-it-solutions","rank":116,"city":"Leesburg","ifmid":3,"ifiid":7,"growth":3384.298,"workers":9,"company":"FedBiz IT Solutions, LLC","website":"http://fedbizit.com","state_l":"Virginia","state_s":"VA","revenue":20071682,"zipcode":20175,"founded":2011,"industry":"Government Services","latitude":39.06444,"metrocode":"Washington-Arlington-Alexandria, DC-VA-MD-WV","longitude":-77.60399,"yrs_on_list":3,"previous_workers":4,"metro":"Washington, DC","partner_lists":""},{"id":87477,"url":"seedinvest","rank":117,"city":"New York City","ifmid":9,"ifiid":2,"growth":3380.5297,"workers":23,"company":"SeedInvest","website":"seedinvest.com","state_l":"New York","state_s":"NY","revenue":4749670,"zipcode":10012,"founded":2012,"industry":"Financial Services","latitude":40.72558,"metrocode":"New York-Newark-Jersey City, NY-NJ-PA","longitude":-73.99808,"yrs_on_list":1,"previous_workers":12,"metro":"New York City","partner_lists":""},{"id":68611,"url":"liftoff","rank":118,"city":"Palo Alto","ifmid":20,"ifiid":5,"growth":3379.989,"workers":100,"company":"Liftoff","website":"liftoff.io","state_l":"California","state_s":"CA","revenue":123413982,"zipcode":94301,"founded":2012,"industry":"Advertising & Marketing","latitude":37.44412,"metrocode":"San Jose-Sunnyvale-Santa Clara, CA","longitude":-122.14991,"yrs_on_list":2,"previous_workers":20,"metro":"San Jose","partner_lists":""},{"id":87478,"url":"green-bay-remodeling","rank":119,"city":"Concord","ifmid":4,"ifiid":20,"growth":3314.2112,"workers":20,"company":"GREEN BAY REMODELING","website":"greenbayremodelinginc.com","state_l":"California","state_s":"CA","revenue":5675375,"zipcode":94520,"founded":2014,"industry":"Construction","latitude":37.99529,"metrocode":"San Francisco-Oakland-Hayward, CA","longitude":-122.04063,"yrs_on_list":1,"previous_workers":1,"metro":"San Francisco","partner_lists":""},{"id":87479,"url":"at-racing-world","rank":120,"city":"Rialto","ifmid":54,"ifiid":18,"growth":3200.1385,"workers":25,"company":"AT Racing World","website":"atracingworld.com","state_l":"California","state_s":"CA","revenue":6600277,"zipcode":92376,"founded":2003,"industry":"Retail","latitude":34.1116,"metrocode":"Riverside-San Bernardino-Ontario, CA","longitude":-117.37741,"yrs_on_list":1,"previous_workers":10,"metro":"Inland Empire, CA","partner_lists":""},{"id":87480,"url":"redshelf","rank":121,"city":"Chicago","ifmid":17,"ifiid":19,"growth":3164.1501,"workers":71,"company":"RedShelf","website":"redshelf.com","state_l":"Illinois","state_s":"IL","revenue":21585041,"zipcode":60654,"founded":2012,"industry":"Education","latitude":41.89229,"metrocode":"Chicago-Naperville-Elgin, IL-IN-WI","longitude":-87.63727,"yrs_on_list":1,"previous_workers":12,"metro":"Chicago","partner_lists":""},{"id":87481,"url":"yoga-international","rank":122,"city":"Honesdale","ifmid":998,"ifiid":12,"growth":3152.7076,"workers":35,"company":"Yoga International","website":"yogainternational.com","state_l":"Pennsylvania","state_s":"PA","revenue":4560166,"zipcode":18431,"founded":2013,"industry":"Media","latitude":41.61651,"metrocode":"","longitude":-75.2577,"yrs_on_list":1,"previous_workers":11,"metro":"","partner_lists":""},{"id":87482,"url":"big-elk-energy-systems","rank":123,"city":"Tulsa","ifmid":841,"ifiid":15,"growth":3152.1645,"workers":92,"company":"Big Elk Energy Systems","website":"bigelk.com","state_l":"Oklahoma","state_s":"OK","revenue":20621650,"zipcode":74107,"founded":2013,"industry":"Manufacturing","latitude":36.11485,"metrocode":"Tulsa, OK","longitude":-96.03232,"yrs_on_list":1,"previous_workers":15,"metro":"Tulsa, OK","partner_lists":""},{"id":87483,"url":"chomps","rank":124,"city":"Naples","ifmid":295,"ifiid":11,"growth":3141.2504,"workers":1,"company":"Chomps","website":"chomps.com","state_l":"Florida","state_s":"FL","revenue":8766999,"zipcode":34102,"founded":2012,"industry":"Food & Beverage","latitude":26.1375,"metrocode":"Naples-Marco Island, FL","longitude":-81.7991,"yrs_on_list":1,"previous_workers":1,"metro":"","partner_lists":""},{"id":87484,"url":"carta","rank":125,"city":"San Francisco","ifmid":4,"ifiid":9,"growth":3129.9012,"workers":316,"company":"Carta","website":"carta.com","state_l":"California","state_s":"CA","revenue":15582400,"zipcode":94107,"founded":2012,"industry":"Software","latitude":37.76046,"metrocode":"San Francisco-Oakland-Hayward, CA","longitude":-122.39972,"yrs_on_list":1,"previous_workers":15,"metro":"San Francisco","partner_lists":""},{"id":87485,"url":"ucw-logistics","rank":126,"city":"Greenville","ifmid":107,"ifiid":6,"growth":3116.182,"workers":19,"company":"UCW Logistics","website":"ucwlogistics.com","state_l":"South Carolina","state_s":"SC","revenue":11575425,"zipcode":29601,"founded":2013,"industry":"Logistics & Transportation","latitude":34.84711,"metrocode":"Greenville-Mauldin-Easley, SC","longitude":-82.40226,"yrs_on_list":1,"previous_workers":7,"metro":"Greenville-Mauldin-Easley, SC","partner_lists":""},{"id":87486,"url":"nickel-suede","rank":127,"city":"Liberty","ifmid":21,"ifiid":4,"growth":3101.343,"workers":30,"company":"Nickel & Suede","website":"nickelandsuede.com","state_l":"Missouri","state_s":"MO","revenue":4090548,"zipcode":64068,"founded":2014,"industry":"Consumer Products & Services","latitude":39.25832,"metrocode":"Kansas City, MO-KS","longitude":-94.38965,"yrs_on_list":1,"previous_workers":4,"metro":"Kansas City, MO-KS","partner_lists":""},{"id":87487,"url":"t-c-lewis-co-real-estate","rank":128,"city":"Johnson City","ifmid":222,"ifiid":3,"growth":3089.4028,"workers":24,"company":"T. C. Lewis & Co. Real Estate","website":"tclrealestate.com","state_l":"Tennessee","state_s":"TN","revenue":3949884,"zipcode":37615,"founded":2014,"industry":"Real Estate","latitude":36.40243,"metrocode":"Johnson City, TN","longitude":-82.45718,"yrs_on_list":1,"previous_workers":4,"metro":"","partner_lists":""},{"id":87488,"url":"alturnatech","rank":129,"city":"Boca Raton","ifmid":1,"ifiid":28,"growth":3081.6745,"workers":6,"company":"AlturnaTech","website":"alturna-tech.com","state_l":"Florida","state_s":"FL","revenue":10314066,"zipcode":33431,"founded":2014,"industry":"IT Management","latitude":26.37476,"metrocode":"Miami-Fort Lauderdale-West Palm Beach, FL","longitude":-80.1062,"yrs_on_list":1,"previous_workers":1,"metro":"Miami","partner_lists":""},{"id":87489,"url":"the-hiring-group","rank":130,"city":"Greer","ifmid":29,"ifiid":21,"growth":3054.5447,"workers":8,"company":"The Hiring Group","website":"thehiringgroup.com","state_l":"South Carolina","state_s":"SC","revenue":3596875,"zipcode":29651,"founded":2014,"industry":"Human Resources","latitude":35.02383,"metrocode":"Atlanta-Sandy Springs-Roswell, GA","longitude":-82.27956,"yrs_on_list":1,"previous_workers":2,"metro":"Atlanta","partner_lists":""},{"id":87490,"url":"hyperion-partners","rank":131,"city":"Las Vegas","ifmid":1004,"ifiid":14,"growth":3049.1416,"workers":31,"company":"Hyperion Partners","website":"hyperionpartners.net","state_l":"Nevada","state_s":"NV","revenue":4499588,"zipcode":89101,"founded":2012,"industry":"Telecommunications","latitude":36.17255,"metrocode":"Las Vegas-Henderson-Paradise, NV","longitude":-115.12223,"yrs_on_list":1,"previous_workers":5,"metro":"Las Vegas, NV","partner_lists":""},{"id":87491,"url":"terracotta-technologies","rank":132,"city":"Chantilly","ifmid":3,"ifiid":7,"growth":2990.0306,"workers":13,"company":"TerraCotta Technologies","website":"teamtc.com","state_l":"Virginia","state_s":"VA","revenue":9159963,"zipcode":20152,"founded":2010,"industry":"Government Services","latitude":38.91915,"metrocode":"Washington-Arlington-Alexandria, DC-VA-MD-WV","longitude":-77.50243,"yrs_on_list":1,"previous_workers":2,"metro":"Washington, DC","partner_lists":""},{"id":87492,"url":"current-staffing-solutions","rank":133,"city":"Southbury","ifmid":70,"ifiid":21,"growth":2987.0796,"workers":5,"company":"Current Staffing Solutions","website":"currentstaffing.com","state_l":"Connecticut","state_s":"CT","revenue":3194016,"zipcode":6488,"founded":2012,"industry":"Human Resources","latitude":41.47598,"metrocode":"New Haven-Milford, CT","longitude":-73.22969,"yrs_on_list":1,"previous_workers":1,"metro":"","partner_lists":""},{"id":87493,"url":"fastexpert","rank":134,"city":"San Marino","ifmid":2,"ifiid":3,"growth":2982.0411,"workers":15,"company":"FastExpert","website":"fastexpert.com","state_l":"California","state_s":"CA","revenue":3215740,"zipcode":91108,"founded":2014,"industry":"Real Estate","latitude":34.12267,"metrocode":"Los Angeles-Long Beach-Anaheim, CA","longitude":-118.11291,"yrs_on_list":1,"previous_workers":4,"metro":"Los Angeles","partner_lists":""},{"id":87494,"url":"freedom-forever","rank":135,"city":"Temecula","ifmid":54,"ifiid":16,"growth":2953.8235,"workers":219,"company":"FREEDOM FOREVER","website":"freedomforever.com","state_l":"California","state_s":"CA","revenue":54965341,"zipcode":92590,"founded":2013,"industry":"Energy","latitude":33.48281,"metrocode":"Riverside-San Bernardino-Ontario, CA","longitude":-117.22613,"yrs_on_list":1,"previous_workers":9,"metro":"Inland Empire, CA","partner_lists":""},{"id":87495,"url":"stackarmor","rank":136,"city":"Tysons","ifmid":3,"ifiid":28,"growth":2949.1924,"workers":4,"company":"stackArmor","website":"stackarmor.com","state_l":"Virginia","state_s":"VA","revenue":3063798,"zipcode":22102,"founded":2012,"industry":"IT Management","latitude":38.95095,"metrocode":"Washington-Arlington-Alexandria, DC-VA-MD-WV","longitude":-77.22954,"yrs_on_list":1,"previous_workers":1,"metro":"Washington, DC","partner_lists":""},{"id":87496,"url":"vibe-kayaks","rank":137,"city":"Kennesaw","ifmid":29,"ifiid":4,"growth":2918.2697,"workers":14,"company":"Vibe Kayaks","website":"vibekayaks.com","state_l":"Georgia","state_s":"GA","revenue":7028705,"zipcode":30144,"founded":2013,"industry":"Consumer Products & Services","latitude":34.03686,"metrocode":"Atlanta-Sandy Springs-Roswell, GA","longitude":-84.59101,"yrs_on_list":1,"previous_workers":3,"metro":"Atlanta","partner_lists":""},{"id":87497,"url":"favor","rank":138,"city":"Austin","ifmid":18,"ifiid":6,"growth":2916.6478,"workers":136,"company":"Favor","website":"favordelivery.com","state_l":"Texas","state_s":"TX","revenue":29190924,"zipcode":78701,"founded":2013,"industry":"Logistics & Transportation","latitude":30.27057,"metrocode":"Austin-Round Rock, TX","longitude":-97.74259,"yrs_on_list":1,"previous_workers":40,"metro":"Austin","partner_lists":""},{"id":87498,"url":"cardflight","rank":139,"city":"New York City","ifmid":9,"ifiid":2,"growth":2916.5515,"workers":30,"company":"CardFlight","website":"cardflight.com","state_l":"New York","state_s":"NY","revenue":5124759,"zipcode":10010,"founded":2013,"industry":"Financial Services","latitude":40.73906,"metrocode":"New York-Newark-Jersey City, NY-NJ-PA","longitude":-73.98225,"yrs_on_list":1,"previous_workers":8,"metro":"New York City","partner_lists":""},{"id":87045,"url":"student-loan-hero","rank":140,"city":"Austin","ifmid":18,"ifiid":2,"growth":2916.3316,"workers":62,"company":"Student Loan Hero","website":"studentloanhero.com","state_l":"Texas","state_s":"TX","revenue":11203681,"zipcode":78701,"founded":2012,"industry":"Financial Services","latitude":30.27057,"metrocode":"Austin-Round Rock, TX","longitude":-97.74259,"yrs_on_list":1,"previous_workers":2,"metro":"Austin","partner_lists":""},{"id":87499,"url":"iserve","rank":141,"city":"Lehi","ifmid":48,"ifiid":5,"growth":2914.7937,"workers":44,"company":"iServe","website":"iserve.com","state_l":"Utah","state_s":"UT","revenue":121332000,"zipcode":84043,"founded":2013,"industry":"Advertising & Marketing","latitude":40.41076,"metrocode":"Provo-Orem, UT","longitude":-111.87679,"yrs_on_list":1,"previous_workers":4,"metro":"Provo-Orem, UT","partner_lists":""},{"id":81972,"url":"villaway","rank":142,"city":"West Hollywood","ifmid":2,"ifiid":22,"growth":2895.7419,"workers":21,"company":"VILLAWAY","website":"villaway.com","state_l":"California","state_s":"CA","revenue":4153027,"zipcode":90069,"founded":2014,"industry":"Travel & Hospitality","latitude":34.09383,"metrocode":"Los Angeles-Long Beach-Anaheim, CA","longitude":-118.3817,"yrs_on_list":1,"previous_workers":3,"metro":"Los Angeles","partner_lists":""},{"id":86925,"url":"aha","rank":143,"city":"Menlo Park","ifmid":4,"ifiid":9,"growth":2871.0585,"workers":65,"company":"Aha!","website":"aha.io","state_l":"California","state_s":"CA","revenue":30236908,"zipcode":94025,"founded":2013,"industry":"Software","latitude":37.45752,"metrocode":"San Francisco-Oakland-Hayward, CA","longitude":-122.17654,"yrs_on_list":1,"previous_workers":6,"metro":"San Francisco","partner_lists":""},{"id":87500,"url":"bustle-digital-group","rank":144,"city":"New York City","ifmid":9,"ifiid":12,"growth":2862.101,"workers":226,"company":"Bustle Digital Group","website":"bustle.company","state_l":"New York","state_s":"NY","revenue":46311650,"zipcode":10010,"founded":2013,"industry":"Media","latitude":40.73906,"metrocode":"New York-Newark-Jersey City, NY-NJ-PA","longitude":-73.98225,"yrs_on_list":1,"previous_workers":37,"metro":"New York City","partner_lists":""},{"id":87501,"url":"karya-property-management","rank":145,"city":"Houston","ifmid":22,"ifiid":3,"growth":2859.8981,"workers":375,"company":"Karya Property Management","website":"karyamanagement.com","state_l":"Texas","state_s":"TX","revenue":124798452,"zipcode":77024,"founded":2014,"industry":"Real Estate","latitude":29.77218,"metrocode":"Houston-The Woodlands-Sugar Land, TX","longitude":-95.5142,"yrs_on_list":1,"previous_workers":20,"metro":"Houston","partner_lists":""},{"id":87502,"url":"slingshot","rank":146,"city":"Orem","ifmid":48,"ifiid":5,"growth":2856.9243,"workers":115,"company":"Slingshot","website":"getslingshot.com","state_l":"Utah","state_s":"UT","revenue":3374235,"zipcode":84097,"founded":2014,"industry":"Advertising & Marketing","latitude":40.30483,"metrocode":"Provo-Orem, UT","longitude":-111.67312,"yrs_on_list":1,"previous_workers":10,"metro":"Provo-Orem, UT","partner_lists":""},{"id":87503,"url":"hastings-management","rank":147,"city":"Pleasant View","ifmid":998,"ifiid":20,"growth":2852.1557,"workers":8,"company":"Hastings Management","website":"hastingsmgt.com","state_l":"Tennessee","state_s":"TN","revenue":3047038,"zipcode":37146,"founded":2012,"industry":"Construction","latitude":36.40207,"metrocode":"","longitude":-87.03202,"yrs_on_list":1,"previous_workers":1,"metro":"","partner_lists":""},{"id":87504,"url":"seller-labs","rank":148,"city":"Athens","ifmid":182,"ifiid":9,"growth":2846.5873,"workers":40,"company":"Seller Labs","website":"sellerlabs.com","state_l":"Georgia","state_s":"GA","revenue":6530816,"zipcode":30601,"founded":2013,"industry":"Software","latitude":33.99915,"metrocode":"Athens-Clarke County, GA","longitude":-83.34699,"yrs_on_list":1,"previous_workers":9,"metro":"","partner_lists":""},{"id":44722,"url":"choozle","rank":149,"city":"Denver","ifmid":30,"ifiid":5,"growth":2837.71,"workers":61,"company":"Choozle","website":"choozle.com","state_l":"Colorado","state_s":"CO","revenue":13609823,"zipcode":80205,"founded":2012,"industry":"Advertising & Marketing","latitude":39.75886,"metrocode":"Denver-Aurora-Lakewood, CO","longitude":-104.96283,"yrs_on_list":2,"previous_workers":8,"metro":"Denver","partner_lists":""},{"id":71746,"url":"untappd","rank":150,"city":"Wilmington","ifmid":192,"ifiid":11,"growth":2808.8939,"workers":85,"company":"Untappd","website":"untappd.com","state_l":"North Carolina","state_s":"NC","revenue":8002309,"zipcode":28401,"founded":2010,"industry":"Food & Beverage","latitude":34.27215,"metrocode":"Wilmington, NC","longitude":-77.96202,"yrs_on_list":2,"previous_workers":10,"metro":"","partner_lists":""},{"id":87505,"url":"qalo","rank":151,"city":"Santa Ana","ifmid":2,"ifiid":4,"growth":2791.7352,"workers":81,"company":"QALO","website":"qalo.com","state_l":"California","state_s":"CA","revenue":29400561,"zipcode":92704,"founded":2013,"industry":"Consumer Products & Services","latitude":33.72113,"metrocode":"Los Angeles-Long Beach-Anaheim, CA","longitude":-117.90511,"yrs_on_list":1,"previous_workers":14,"metro":"Los Angeles","partner_lists":""},{"id":87506,"url":"mdsave","rank":152,"city":"Brentwood","ifmid":82,"ifiid":10,"growth":2788.8919,"workers":49,"company":"MDsave","website":"mdsave.com","state_l":"Tennessee","state_s":"TN","revenue":15521612,"zipcode":37027,"founded":2012,"industry":"Health","latitude":35.99929,"metrocode":"Nashville-Davidson--Murfreesboro--Franklin, TN","longitude":-86.78506,"yrs_on_list":1,"previous_workers":12,"metro":"Nashville","partner_lists":""},{"id":87507,"url":"coschedule","rank":153,"city":"Bismarck","ifmid":402,"ifiid":9,"growth":2770.5444,"workers":66,"company":"CoSchedule","website":"coschedule.com","state_l":"North Dakota","state_s":"ND","revenue":4756980,"zipcode":58501,"founded":2013,"industry":"Software","latitude":46.81603,"metrocode":"Bismarck, ND","longitude":-100.7003,"yrs_on_list":1,"previous_workers":5,"metro":"","partner_lists":""},{"id":87508,"url":"shefit","rank":154,"city":"Hudsonville","ifmid":401,"ifiid":18,"growth":2769.6994,"workers":16,"company":"Shefit","website":"shefit.com","state_l":"Michigan","state_s":"MI","revenue":2955159,"zipcode":49426,"founded":2013,"industry":"Retail","latitude":42.86327,"metrocode":"Holland-Grand Haven, MI","longitude":-85.88757,"yrs_on_list":1,"previous_workers":4,"metro":"","partner_lists":""},{"id":87509,"url":"linea-di-liara","rank":155,"city":"Glendale Heights","ifmid":17,"ifiid":4,"growth":2768.1306,"workers":13,"company":"Linea di Liara","website":"lineadiliara.com","state_l":"Illinois","state_s":"IL","revenue":7570775,"zipcode":60139,"founded":2013,"industry":"Consumer Products & Services","latitude":41.91888,"metrocode":"Chicago-Naperville-Elgin, IL-IN-WI","longitude":-88.0781,"yrs_on_list":1,"previous_workers":3,"metro":"Chicago","partner_lists":""},{"id":87510,"url":"apptimize","rank":156,"city":"San Francisco","ifmid":4,"ifiid":9,"growth":2683.6112,"workers":41,"company":"Apptimize","website":"apptimize.com","state_l":"California","state_s":"CA","revenue":3214208,"zipcode":94107,"founded":2013,"industry":"Software","latitude":37.76046,"metrocode":"San Francisco-Oakland-Hayward, CA","longitude":-122.39972,"yrs_on_list":1,"previous_workers":5,"metro":"San Francisco","partner_lists":""},{"id":87511,"url":"inspiranza-designs","rank":157,"city":"Columbia","ifmid":74,"ifiid":18,"growth":2679.4836,"workers":7,"company":"Inspiranza Designs","website":"inspiranzadesigns.com","state_l":"Illinois","state_s":"IL","revenue":2865453,"zipcode":62236,"founded":2005,"industry":"Retail","latitude":38.43659,"metrocode":"St. Louis, MO-IL","longitude":-90.21646,"yrs_on_list":1,"previous_workers":2,"metro":"St. Louis, MO-IL","partner_lists":""},{"id":71511,"url":"gridgain-systems","rank":158,"city":"Foster City","ifmid":4,"ifiid":9,"growth":2676.5843,"workers":121,"company":"GridGain Systems","website":"gridgain.com","state_l":"California","state_s":"CA","revenue":10986000,"zipcode":94404,"founded":2007,"industry":"Software","latitude":37.556,"metrocode":"San Francisco-Oakland-Hayward, CA","longitude":-122.26768,"yrs_on_list":2,"previous_workers":28,"metro":"San Francisco","partner_lists":""},{"id":87512,"url":"pinnacle-furnished-suites","rank":159,"city":"Chicago","ifmid":17,"ifiid":3,"growth":2668.8505,"workers":9,"company":"Pinnacle Furnished Suites","website":"pfsuites.com","state_l":"Illinois","state_s":"IL","revenue":4868996,"zipcode":60607,"founded":2014,"industry":"Real Estate","latitude":41.87493,"metrocode":"Chicago-Naperville-Elgin, IL-IN-WI","longitude":-87.6516,"yrs_on_list":1,"previous_workers":2,"metro":"Chicago","partner_lists":""},{"id":87513,"url":"excelhealth","rank":160,"city":"Southlake","ifmid":8,"ifiid":10,"growth":2652.1209,"workers":7,"company":"ExcelHealth","website":"ireliev.com","state_l":"Texas","state_s":"TX","revenue":4503378,"zipcode":76092,"founded":2009,"industry":"Health","latitude":32.95987,"metrocode":"Dallas-Fort Worth-Arlington, TX","longitude":-97.14844,"yrs_on_list":1,"previous_workers":1,"metro":"Dallas","partner_lists":""},{"id":72866,"url":"rebellion-photonics","rank":161,"city":"Houston","ifmid":22,"ifiid":16,"growth":2647.118,"workers":25,"company":"Rebellion Photonics","website":"rebellionphotonics.com","state_l":"Texas","state_s":"TX","revenue":5505252,"zipcode":77002,"founded":2009,"industry":"Energy","latitude":29.75684,"metrocode":"Houston-The Woodlands-Sugar Land, TX","longitude":-95.36565,"yrs_on_list":2,"previous_workers":16,"metro":"Houston","partner_lists":""},{"id":71626,"url":"courier-distribution-systems","rank":162,"city":"Duluth","ifmid":29,"ifiid":6,"growth":2637.148,"workers":968,"company":"Courier Distribution Systems","website":"courierds.com","state_l":"Georgia","state_s":"GA","revenue":41723360,"zipcode":30097,"founded":2006,"industry":"Logistics & Transportation","latitude":34.02614,"metrocode":"Atlanta-Sandy Springs-Roswell, GA","longitude":-84.14559,"yrs_on_list":2,"previous_workers":15,"metro":"Atlanta","partner_lists":""},{"id":87514,"url":"hypr","rank":163,"city":"New York City","ifmid":9,"ifiid":5,"growth":2635.414,"workers":35,"company":"HYPR","website":"hyprbrands.com","state_l":"New York","state_s":"NY","revenue":3027228,"zipcode":10007,"founded":2013,"industry":"Advertising & Marketing","latitude":40.71385,"metrocode":"New York-Newark-Jersey City, NY-NJ-PA","longitude":-74.00776,"yrs_on_list":1,"previous_workers":5,"metro":"New York City","partner_lists":""},{"id":87515,"url":"orthofi","rank":164,"city":"Denver","ifmid":30,"ifiid":9,"growth":2618.4317,"workers":165,"company":"OrthoFi","website":"orthofi.com","state_l":"Colorado","state_s":"CO","revenue":7340282,"zipcode":80203,"founded":2013,"industry":"Software","latitude":39.73169,"metrocode":"Denver-Aurora-Lakewood, CO","longitude":-104.98265,"yrs_on_list":1,"previous_workers":26,"metro":"Denver","partner_lists":""},{"id":70921,"url":"strike-social","rank":165,"city":"Chicago","ifmid":17,"ifiid":5,"growth":2614.0587,"workers":38,"company":"Strike Social","website":"strikesocial.com","state_l":"Illinois","state_s":"IL","revenue":47713288,"zipcode":60601,"founded":2013,"industry":"Advertising & Marketing","latitude":41.88531,"metrocode":"Chicago-Naperville-Elgin, IL-IN-WI","longitude":-87.62212,"yrs_on_list":2,"previous_workers":5,"metro":"Chicago","partner_lists":""},{"id":87516,"url":"realtyshares","rank":166,"city":"San Francisco","ifmid":4,"ifiid":3,"growth":2591.9634,"workers":112,"company":"RealtyShares","website":"realtyshares.com","state_l":"California","state_s":"CA","revenue":13146230,"zipcode":94105,"founded":2013,"industry":"Real Estate","latitude":37.78986,"metrocode":"San Francisco-Oakland-Hayward, CA","longitude":-122.39366,"yrs_on_list":1,"previous_workers":12,"metro":"San Francisco","partner_lists":""},{"id":80666,"url":"stealth-iss-group","rank":167,"city":"Arlington","ifmid":3,"ifiid":28,"growth":2573.2289,"workers":16,"company":"Stealth-ISS Group","website":"stealth-iss.com","state_l":"Virginia","state_s":"VA","revenue":2674218,"zipcode":22203,"founded":2002,"industry":"IT Management","latitude":38.87372,"metrocode":"Washington-Arlington-Alexandria, DC-VA-MD-WV","longitude":-77.11732,"yrs_on_list":1,"previous_workers":2,"metro":"Washington, DC","partner_lists":"Vistage"},{"id":87517,"url":"xy-planning-network","rank":168,"city":"Bozeman","ifmid":369,"ifiid":2,"growth":2570.8451,"workers":20,"company":"XY Planning Network","website":"xyplanningnetwork.com","state_l":"Montana","state_s":"MT","revenue":3192381,"zipcode":59715,"founded":2014,"industry":"Financial Services","latitude":45.6815,"metrocode":"Bozeman, MT","longitude":-111.0168,"yrs_on_list":1,"previous_workers":2,"metro":"","partner_lists":""},{"id":87518,"url":"dignari","rank":169,"city":"Alexandria","ifmid":3,"ifiid":7,"growth":2551.2275,"workers":36,"company":"Dignari","website":"dignari.com","state_l":"Virginia","state_s":"VA","revenue":8422075,"zipcode":22301,"founded":2013,"industry":"Government Services","latitude":38.8199,"metrocode":"Washington-Arlington-Alexandria, DC-VA-MD-WV","longitude":-77.05958,"yrs_on_list":1,"previous_workers":1,"metro":"Washington, DC","partner_lists":""},{"id":87519,"url":"azure-knowledge","rank":170,"city":"Piscataway","ifmid":9,"ifiid":17,"growth":2533.8079,"workers":116,"company":"Azure Knowledge","website":"azureknowledge.com","state_l":"New Jersey","state_s":"NJ","revenue":9027877,"zipcode":8854,"founded":2010,"industry":"Business Products & Services","latitude":40.54564,"metrocode":"New York-Newark-Jersey City, NY-NJ-PA","longitude":-74.46082,"yrs_on_list":1,"previous_workers":32,"metro":"New York City","partner_lists":""},{"id":44578,"url":"cylance","rank":171,"city":"Irvine","ifmid":2,"ifiid":13,"growth":2507.3097,"workers":844,"company":"Cylance","website":"cylance.com","state_l":"California","state_s":"CA","revenue":108751669,"zipcode":92618,"founded":2012,"industry":"Security","latitude":33.66694,"metrocode":"Los Angeles-Long Beach-Anaheim, CA","longitude":-117.73209,"yrs_on_list":3,"previous_workers":83,"metro":"Los Angeles","partner_lists":""},{"id":87520,"url":"ventive","rank":172,"city":"Boise","ifmid":159,"ifiid":9,"growth":2489.276,"workers":15,"company":"Ventive","website":"getventive.com","state_l":"Idaho","state_s":"ID","revenue":2864775,"zipcode":83702,"founded":2014,"industry":"Software","latitude":43.68047,"metrocode":"Boise City-Nampa, ID","longitude":-116.16014,"yrs_on_list":1,"previous_workers":2,"metro":"Boise City-Nampa, ID","partner_lists":""},{"id":73221,"url":"sia-solutions","rank":173,"city":"Houston","ifmid":22,"ifiid":23,"growth":2485.8013,"workers":54,"company":"SIA SOLUTIONS","website":"siasolutions.com","state_l":"Texas","state_s":"TX","revenue":11723144,"zipcode":77084,"founded":2012,"industry":"Environmental Services","latitude":29.82749,"metrocode":"Houston-The Woodlands-Sugar Land, TX","longitude":-95.65992,"yrs_on_list":2,"previous_workers":4,"metro":"Houston","partner_lists":""},{"id":87521,"url":"primitive-social","rank":174,"city":"Lubbock","ifmid":886,"ifiid":5,"growth":2483.638,"workers":34,"company":"Primitive Social","website":"primitivesocial.com","state_l":"Texas","state_s":"TX","revenue":2583638,"zipcode":79401,"founded":2011,"industry":"Advertising & Marketing","latitude":33.58877,"metrocode":"Lubbock, TX","longitude":-101.85044,"yrs_on_list":1,"previous_workers":4,"metro":"","partner_lists":"Vistage"},{"id":81894,"url":"bombas","rank":175,"city":"New York City","ifmid":9,"ifiid":4,"growth":2457.2331,"workers":43,"company":"Bombas","website":"bombas.com","state_l":"New York","state_s":"NY","revenue":46557446,"zipcode":10003,"founded":2013,"industry":"Consumer Products & Services","latitude":40.73183,"metrocode":"New York-Newark-Jersey City, NY-NJ-PA","longitude":-73.98918,"yrs_on_list":1,"previous_workers":5,"metro":"New York City","partner_lists":""},{"id":87522,"url":"boxycharm","rank":176,"city":"Pembroke Pines","ifmid":1,"ifiid":4,"growth":2447.4393,"workers":34,"company":"BoxyCharm","website":"boxycharm.com","state_l":"Florida","state_s":"FL","revenue":49014872,"zipcode":33027,"founded":2013,"industry":"Consumer Products & Services","latitude":25.9881,"metrocode":"Miami-Fort Lauderdale-West Palm Beach, FL","longitude":-80.34044,"yrs_on_list":1,"previous_workers":12,"metro":"Miami","partner_lists":"EO"},{"id":87523,"url":"shannon-staley-sons","rank":177,"city":"Carnegie","ifmid":52,"ifiid":20,"growth":2439.1047,"workers":83,"company":"Shannon Staley & Sons","website":"shannonstaleyandsons.com","state_l":"Pennsylvania","state_s":"PA","revenue":5279662,"zipcode":15106,"founded":2012,"industry":"Construction","latitude":40.41012,"metrocode":"Pittsburgh, PA","longitude":-80.1142,"yrs_on_list":1,"previous_workers":7,"metro":"Pittsburgh, PA","partner_lists":""},{"id":87524,"url":"indev","rank":178,"city":"Arlington","ifmid":3,"ifiid":7,"growth":2417.8865,"workers":140,"company":"Indev","website":"indev.com","state_l":"Virginia","state_s":"VA","revenue":8159161,"zipcode":22201,"founded":2013,"industry":"Government Services","latitude":38.88656,"metrocode":"Washington-Arlington-Alexandria, DC-VA-MD-WV","longitude":-77.09523,"yrs_on_list":1,"previous_workers":3,"metro":"Washington, DC","partner_lists":""},{"id":87525,"url":"g2-crowd","rank":179,"city":"Chicago","ifmid":17,"ifiid":9,"growth":2413.685,"workers":146,"company":"G2 Crowd","website":"g2crowd.com","state_l":"Illinois","state_s":"IL","revenue":11108678,"zipcode":60606,"founded":2012,"industry":"Software","latitude":41.88207,"metrocode":"Chicago-Naperville-Elgin, IL-IN-WI","longitude":-87.63735,"yrs_on_list":1,"previous_workers":14,"metro":"Chicago","partner_lists":""},{"id":43396,"url":"mortgage-financial-services","rank":180,"city":"Flower Mound","ifmid":8,"ifiid":2,"growth":2409.4713,"workers":219,"company":"Mortgage Financial Services","website":"mortgagefinancial.com","state_l":"Texas","state_s":"TX","revenue":31835027,"zipcode":75028,"founded":2007,"industry":"Financial Services","latitude":33.03271,"metrocode":"Dallas-Fort Worth-Arlington, TX","longitude":-97.06007,"yrs_on_list":3,"previous_workers":12,"metro":"Dallas","partner_lists":""},{"id":74476,"url":"campuslogic","rank":181,"city":"Chandler","ifmid":46,"ifiid":9,"growth":2374.8947,"workers":84,"company":"CampusLogic","website":"campuslogic.com","state_l":"Arizona","state_s":"AZ","revenue":8750609,"zipcode":85286,"founded":2011,"industry":"Software","latitude":33.27198,"metrocode":"Phoenix-Mesa-Scottsdale, AZ","longitude":-111.83177,"yrs_on_list":2,"previous_workers":22,"metro":"Phoenix","partner_lists":""},{"id":87526,"url":"amplio-digital","rank":182,"city":"Boulder","ifmid":31,"ifiid":5,"growth":2374.4337,"workers":18,"company":"Amplio Digital","website":"ampliodigital.com","state_l":"Colorado","state_s":"CO","revenue":2834835,"zipcode":80302,"founded":2014,"industry":"Advertising & Marketing","latitude":40.04346,"metrocode":"Boulder, CO","longitude":-105.37232,"yrs_on_list":1,"previous_workers":3,"metro":"Boulder, CO","partner_lists":""},{"id":42985,"url":"bytecubed","rank":183,"city":"Arlington","ifmid":3,"ifiid":29,"growth":2352.7961,"workers":135,"company":"ByteCubed","website":"bytecubed.com","state_l":"Virginia","state_s":"VA","revenue":33183559,"zipcode":22202,"founded":2011,"industry":"IT System Development","latitude":38.85687,"metrocode":"Washington-Arlington-Alexandria, DC-VA-MD-WV","longitude":-77.05149,"yrs_on_list":3,"previous_workers":5,"metro":"Washington, DC","partner_lists":""},{"id":87527,"url":"federal-strategies","rank":184,"city":"Fredericksburg","ifmid":3,"ifiid":7,"growth":2351.0158,"workers":31,"company":"Federal Strategies","website":"fed-strat.com","state_l":"Virginia","state_s":"VA","revenue":3849737,"zipcode":22406,"founded":2014,"industry":"Government Services","latitude":38.39977,"metrocode":"Washington-Arlington-Alexandria, DC-VA-MD-WV","longitude":-77.54731,"yrs_on_list":1,"previous_workers":2,"metro":"Washington, DC","partner_lists":""},{"id":87528,"url":"fishermen-labs","rank":185,"city":"El Segundo","ifmid":2,"ifiid":9,"growth":2344.5019,"workers":20,"company":"Fishermen Labs","website":"fishermenlabs.com","state_l":"California","state_s":"CA","revenue":6144500,"zipcode":90245,"founded":2014,"industry":"Software","latitude":33.91714,"metrocode":"Los Angeles-Long Beach-Anaheim, CA","longitude":-118.40427,"yrs_on_list":1,"previous_workers":2,"metro":"Los Angeles","partner_lists":""},{"id":74096,"url":"b3-group","rank":186,"city":"Leesburg","ifmid":3,"ifiid":7,"growth":2344.4692,"workers":160,"company":"B3 Group","website":"b3groupinc.com","state_l":"Virginia","state_s":"VA","revenue":24475150,"zipcode":20175,"founded":2008,"industry":"Government Services","latitude":39.06444,"metrocode":"Washington-Arlington-Alexandria, DC-VA-MD-WV","longitude":-77.60399,"yrs_on_list":2,"previous_workers":12,"metro":"Washington, DC","partner_lists":""},{"id":87529,"url":"sheds-direct","rank":187,"city":"Granite Falls","ifmid":191,"ifiid":20,"growth":2336.3462,"workers":38,"company":"Sheds Direct","website":"shedsdirectinc.com","state_l":"North Carolina","state_s":"NC","revenue":21480314,"zipcode":28630,"founded":2013,"industry":"Construction","latitude":35.83198,"metrocode":"Hickory-Lenoir-Morganton, NC","longitude":-81.42017,"yrs_on_list":1,"previous_workers":13,"metro":"","partner_lists":""},{"id":87530,"url":"southwest-geotechnical","rank":188,"city":"Las Vegas","ifmid":1004,"ifiid":24,"growth":2311.8416,"workers":28,"company":"Southwest Geotechnical","website":"swgeo.us","state_l":"Nevada","state_s":"NV","revenue":2856947,"zipcode":89118,"founded":2014,"industry":"Engineering","latitude":36.07738,"metrocode":"Las Vegas-Henderson-Paradise, NV","longitude":-115.21397,"yrs_on_list":1,"previous_workers":3,"metro":"Las Vegas, NV","partner_lists":"Vistage"},{"id":87531,"url":"aspire-health","rank":189,"city":"Nashville","ifmid":82,"ifiid":10,"growth":2308.3426,"workers":628,"company":"Aspire Health","website":"aspirehealthcare.com","state_l":"Tennessee","state_s":"TN","revenue":61324279,"zipcode":37201,"founded":2013,"industry":"Health","latitude":36.166,"metrocode":"Nashville-Davidson--Murfreesboro--Franklin, TN","longitude":-86.7773,"yrs_on_list":1,"previous_workers":50,"metro":"Nashville","partner_lists":""},{"id":87532,"url":"blue-fire-leads","rank":190,"city":"Provo","ifmid":48,"ifiid":5,"growth":2306.7872,"workers":10,"company":"Blue Fire Leads","website":"bluefireleads.com","state_l":"Utah","state_s":"UT","revenue":4514844,"zipcode":84604,"founded":2014,"industry":"Advertising & Marketing","latitude":40.31866,"metrocode":"Provo-Orem, UT","longitude":-111.57696,"yrs_on_list":1,"previous_workers":9,"metro":"Provo-Orem, UT","partner_lists":""},{"id":87533,"url":"odl-services","rank":191,"city":"Virginia Beach","ifmid":15,"ifiid":7,"growth":2306.048,"workers":12,"company":"ODL Services","website":"odlservices.com","state_l":"Virginia","state_s":"VA","revenue":2605750,"zipcode":23462,"founded":2012,"industry":"Government Services","latitude":36.83731,"metrocode":"Virginia Beach-Norfolk-Newport News, VA-NC","longitude":-76.15051,"yrs_on_list":1,"previous_workers":2,"metro":"Virginia Beach","partner_lists":""},{"id":70901,"url":"shiphawk","rank":192,"city":"Santa Barbara","ifmid":274,"ifiid":6,"growth":2298.0153,"workers":18,"company":"ShipHawk","website":"shiphawk.com","state_l":"California","state_s":"CA","revenue":8352839,"zipcode":93101,"founded":2012,"industry":"Logistics & Transportation","latitude":34.41898,"metrocode":"Santa Barbara-Santa Maria-Goleta, CA","longitude":-119.70917,"yrs_on_list":2,"previous_workers":7,"metro":"Santa Barbara-Santa Maria-Goleta, CA","partner_lists":""},{"id":87534,"url":"sei-chicago","rank":193,"city":"Chicago","ifmid":17,"ifiid":17,"growth":2286.3697,"workers":14,"company":"SEI-Chicago","website":"sei.com/chicago-office","state_l":"Illinois","state_s":"IL","revenue":2908221,"zipcode":60606,"founded":2014,"industry":"Business Products & Services","latitude":41.88207,"metrocode":"Chicago-Naperville-Elgin, IL-IN-WI","longitude":-87.63735,"yrs_on_list":1,"previous_workers":4,"metro":"Chicago","partner_lists":""},{"id":43050,"url":"organifi","rank":194,"city":"San Diego","ifmid":11,"ifiid":10,"growth":2282.5928,"workers":80,"company":"Organifi","website":"organifi.com","state_l":"California","state_s":"CA","revenue":29380133,"zipcode":92101,"founded":2014,"industry":"Health","latitude":32.7241,"metrocode":"San Diego-Carlsbad, CA","longitude":-117.17091,"yrs_on_list":3,"previous_workers":5,"metro":"San Diego","partner_lists":"EO"},{"id":87535,"url":"5q-partners","rank":195,"city":"Peachtree Corners","ifmid":29,"ifiid":28,"growth":2278.4004,"workers":32,"company":"5Q Partners","website":"5qpartners.com","state_l":"Georgia","state_s":"GA","revenue":4672653,"zipcode":30092,"founded":2013,"industry":"IT Management","latitude":33.97239,"metrocode":"Atlanta-Sandy Springs-Roswell, GA","longitude":-84.23199,"yrs_on_list":1,"previous_workers":4,"metro":"Atlanta","partner_lists":""},{"id":87536,"url":"inspire","rank":196,"city":"Santa Monica","ifmid":2,"ifiid":16,"growth":2276.2979,"workers":108,"company":"Inspire","website":"helloinspire.com","state_l":"California","state_s":"CA","revenue":66950555,"zipcode":90401,"founded":2014,"industry":"Energy","latitude":34.01367,"metrocode":"Los Angeles-Long Beach-Anaheim, CA","longitude":-118.49375,"yrs_on_list":1,"previous_workers":12,"metro":"Los Angeles","partner_lists":""},{"id":71136,"url":"american-business-brokers","rank":197,"city":"Salt Lake City","ifmid":12,"ifiid":17,"growth":2257.3347,"workers":4,"company":"American Business Brokers","website":"americanbizbrokers.com","state_l":"Utah","state_s":"UT","revenue":9639943,"zipcode":84117,"founded":2013,"industry":"Business Products & Services","latitude":40.66103,"metrocode":"Salt Lake City, UT","longitude":-111.8347,"yrs_on_list":2,"previous_workers":1,"metro":"Salt Lake City","partner_lists":""},{"id":43046,"url":"lexicon-health","rank":198,"city":"Sonoma","ifmid":247,"ifiid":12,"growth":2249.6002,"workers":13,"company":"Lexicon Health","website":"lexicondmg.com","state_l":"California","state_s":"CA","revenue":17396745,"zipcode":95476,"founded":2012,"industry":"Media","latitude":38.24943,"metrocode":"Santa Rosa-Petaluma, CA","longitude":-122.46663,"yrs_on_list":3,"previous_workers":7,"metro":"","partner_lists":""},{"id":70876,"url":"gametime","rank":199,"city":"San Francisco","ifmid":4,"ifiid":4,"growth":2242.9721,"workers":79,"company":"Gametime","website":"gametime.co","state_l":"California","state_s":"CA","revenue":89661230,"zipcode":94107,"founded":2012,"industry":"Consumer Products & Services","latitude":37.76046,"metrocode":"San Francisco-Oakland-Hayward, CA","longitude":-122.39972,"yrs_on_list":2,"previous_workers":26,"metro":"San Francisco","partner_lists":""},{"id":42999,"url":"greenspire","rank":200,"city":"Santa Monica","ifmid":2,"ifiid":16,"growth":2240.4601,"workers":150,"company":"Greenspire","website":"greenspire.com","state_l":"California","state_s":"CA","revenue":30725583,"zipcode":90403,"founded":2012,"industry":"Energy","latitude":34.03075,"metrocode":"Los Angeles-Long Beach-Anaheim, CA","longitude":-118.4921,"yrs_on_list":3,"previous_workers":25,"metro":"Los Angeles","partner_lists":""},{"id":87537,"url":"acuity-surgical","rank":201,"city":"Dallas","ifmid":8,"ifiid":10,"growth":2232.8208,"workers":10,"company":"Acuity Surgical","website":"acuitysurgical.com","state_l":"Texas","state_s":"TX","revenue":6200451,"zipcode":75244,"founded":2013,"industry":"Health","latitude":32.92537,"metrocode":"Dallas-Fort Worth-Arlington, TX","longitude":-96.83633,"yrs_on_list":1,"previous_workers":4,"metro":"Dallas","partner_lists":""},{"id":86668,"url":"digital-relativity","rank":202,"city":"Fayetteville","ifmid":504,"ifiid":5,"growth":2230.0782,"workers":16,"company":"Digital Relativity","website":"digitalrelativity.com","state_l":"West Virginia","state_s":"WV","revenue":9118295,"zipcode":25840,"founded":2011,"industry":"Advertising & Marketing","latitude":38.04289,"metrocode":"Oak Hill, WV","longitude":-81.12266,"yrs_on_list":1,"previous_workers":6,"metro":"","partner_lists":""},{"id":87538,"url":"arm-consulting","rank":203,"city":"Leesburg","ifmid":3,"ifiid":7,"growth":2229.9194,"workers":11,"company":"ARM Consulting","website":"armconsultingonline.com","state_l":"Virginia","state_s":"VA","revenue":3011514,"zipcode":20175,"founded":2005,"industry":"Government Services","latitude":39.06444,"metrocode":"Washington-Arlington-Alexandria, DC-VA-MD-WV","longitude":-77.60399,"yrs_on_list":1,"previous_workers":2,"metro":"Washington, DC","partner_lists":""},{"id":71556,"url":"move-bumpers","rank":204,"city":"Lewistown","ifmid":998,"ifiid":15,"growth":2222.6604,"workers":12,"company":"MOVE Bumpers","website":"movebumpers.com","state_l":"Montana","state_s":"MT","revenue":4899443,"zipcode":59457,"founded":2013,"industry":"Manufacturing","latitude":47.0641,"metrocode":"","longitude":-109.4202,"yrs_on_list":2,"previous_workers":3,"metro":"","partner_lists":""},{"id":87539,"url":"aerospace-asset-trading","rank":205,"city":"Doral","ifmid":1,"ifiid":17,"growth":2219.9111,"workers":18,"company":"Aerospace Asset Trading","website":"aerospaceasset.com","state_l":"Florida","state_s":"FL","revenue":23216580,"zipcode":33126,"founded":2013,"industry":"Business Products & Services","latitude":25.7794,"metrocode":"Miami-Fort Lauderdale-West Palm Beach, FL","longitude":-80.29948,"yrs_on_list":1,"previous_workers":3,"metro":"Miami","partner_lists":""},{"id":87540,"url":"discussio","rank":206,"city":"Seattle","ifmid":23,"ifiid":9,"growth":2212.0848,"workers":49,"company":"Discuss.io","website":"discuss.io","state_l":"Washington","state_s":"WA","revenue":4394834,"zipcode":98103,"founded":2013,"industry":"Software","latitude":47.67826,"metrocode":"Seattle-Tacoma-Bellevue, WA","longitude":-122.33815,"yrs_on_list":1,"previous_workers":5,"metro":"Seattle","partner_lists":""},{"id":87541,"url":"wells-solar","rank":207,"city":"Austin","ifmid":18,"ifiid":16,"growth":2204.6908,"workers":41,"company":"Wells Solar","website":"wellssolar.com","state_l":"Texas","state_s":"TX","revenue":9585209,"zipcode":78744,"founded":2014,"industry":"Energy","latitude":30.17604,"metrocode":"Austin-Round Rock, TX","longitude":-97.72779,"yrs_on_list":1,"previous_workers":10,"metro":"Austin","partner_lists":""},{"id":87542,"url":"titan-solar-power","rank":208,"city":"Gilbert","ifmid":46,"ifiid":16,"growth":2196.7961,"workers":250,"company":"Titan Solar Power","website":"titansolarpower.com","state_l":"Arizona","state_s":"AZ","revenue":88905599,"zipcode":85233,"founded":2013,"industry":"Energy","latitude":33.3535,"metrocode":"Phoenix-Mesa-Scottsdale, AZ","longitude":-111.81143,"yrs_on_list":1,"previous_workers":5,"metro":"Phoenix","partner_lists":""},{"id":87543,"url":"seriously","rank":209,"city":"Venice Beach","ifmid":2,"ifiid":12,"growth":2195.8686,"workers":58,"company":"Seriously","website":"seriously.com","state_l":"California","state_s":"CA","revenue":36525249,"zipcode":90291,"founded":2013,"industry":"Media","latitude":33.9934,"metrocode":"Los Angeles-Long Beach-Anaheim, CA","longitude":-118.46519,"yrs_on_list":1,"previous_workers":17,"metro":"Los Angeles","partner_lists":""},{"id":87544,"url":"crystal-clear-digital-marketing","rank":210,"city":"Orlando","ifmid":68,"ifiid":10,"growth":2183.3201,"workers":47,"company":"Crystal Clear Digital Marketing","website":"crystalcleardigitalmarketing.com","state_l":"Florida","state_s":"FL","revenue":5738463,"zipcode":32819,"founded":2013,"industry":"Health","latitude":28.45338,"metrocode":"Orlando-Kissimmee-Sanford, FL","longitude":-81.4724,"yrs_on_list":1,"previous_workers":12,"metro":"Orlando, FL","partner_lists":""},{"id":87545,"url":"2020-on-site","rank":211,"city":"Boston","ifmid":6,"ifiid":10,"growth":2175.1804,"workers":14,"company":"2020 On-site","website":"2020onsite.com","state_l":"Massachusetts","state_s":"MA","revenue":2578462,"zipcode":2116,"founded":2013,"industry":"Health","latitude":42.35058,"metrocode":"Boston-Cambridge-Newton, MA-NH","longitude":-71.0764,"yrs_on_list":1,"previous_workers":3,"metro":"Boston","partner_lists":""},{"id":87546,"url":"avanti-industries","rank":212,"city":"Glendale","ifmid":46,"ifiid":20,"growth":2173.262,"workers":206,"company":"Avanti Industries","website":"avantiwindow.com","state_l":"Arizona","state_s":"AZ","revenue":32007574,"zipcode":85307,"founded":2014,"industry":"Construction","latitude":33.53983,"metrocode":"Phoenix-Mesa-Scottsdale, AZ","longitude":-112.31445,"yrs_on_list":1,"previous_workers":32,"metro":"Phoenix","partner_lists":""},{"id":42997,"url":"chefs-cut-real-jerky","rank":213,"city":"New York City","ifmid":9,"ifiid":11,"growth":2165.1648,"workers":30,"company":"Chef's Cut Real Jerky","website":"chefscutrealjerky.com","state_l":"New York","state_s":"NY","revenue":30956037,"zipcode":10011,"founded":2009,"industry":"Food & Beverage","latitude":40.74204,"metrocode":"New York-Newark-Jersey City, NY-NJ-PA","longitude":-74.00062,"yrs_on_list":3,"previous_workers":8,"metro":"New York City","partner_lists":""},{"id":87547,"url":"elite-senior-care","rank":214,"city":"Paragould","ifmid":832,"ifiid":10,"growth":2148.7309,"workers":25,"company":"Elite Senior Care","website":"myeliteseniorcare.com","state_l":"Arkansas","state_s":"AR","revenue":4171868,"zipcode":72450,"founded":2013,"industry":"Health","latitude":36.07955,"metrocode":"Paragould, AR","longitude":-90.51644,"yrs_on_list":1,"previous_workers":3,"metro":"","partner_lists":""},{"id":87548,"url":"option-alpha","rank":215,"city":"Indiana","ifmid":357,"ifiid":9,"growth":2148.1721,"workers":1,"company":"Option Alpha","website":"optionalpha.com","state_l":"Pennsylvania","state_s":"PA","revenue":3645546,"zipcode":15701,"founded":2014,"industry":"Software","latitude":40.62838,"metrocode":"Indiana, PA","longitude":-79.15004,"yrs_on_list":1,"previous_workers":1,"metro":"","partner_lists":""},{"id":73161,"url":"clearas-water-recovery","rank":216,"city":"Missoula","ifmid":405,"ifiid":23,"growth":2146.2264,"workers":30,"company":"CLEARAS Water Recovery","website":"clearaswater.com","state_l":"Montana","state_s":"MT","revenue":7058070,"zipcode":59808,"founded":2008,"industry":"Environmental Services","latitude":46.9322,"metrocode":"Missoula, MT","longitude":-79.9594,"yrs_on_list":2,"previous_workers":10,"metro":"","partner_lists":""},{"id":87549,"url":"fedwriters","rank":217,"city":"Fairfax","ifmid":3,"ifiid":7,"growth":2144.9349,"workers":45,"company":"FedWriters","website":"http://fedwriters.com","state_l":"Virginia","state_s":"VA","revenue":3427836,"zipcode":22030,"founded":2010,"industry":"Government Services","latitude":38.83714,"metrocode":"Washington-Arlington-Alexandria, DC-VA-MD-WV","longitude":-77.34047,"yrs_on_list":1,"previous_workers":1,"metro":"Washington, DC","partner_lists":""},{"id":87550,"url":"agil3-technology-solutions","rank":218,"city":"Accokeek","ifmid":3,"ifiid":7,"growth":2140.9382,"workers":45,"company":"Agil3 Technology Solutions","website":"agil3tech.com","state_l":"Maryland","state_s":"MD","revenue":4938714,"zipcode":20607,"founded":2012,"industry":"Government Services","latitude":38.67267,"metrocode":"Washington-Arlington-Alexandria, DC-VA-MD-WV","longitude":-77.01855,"yrs_on_list":1,"previous_workers":5,"metro":"Washington, DC","partner_lists":""},{"id":71116,"url":"brazi-bites","rank":219,"city":"Portland","ifmid":10,"ifiid":11,"growth":2138.372,"workers":7,"company":"Brazi Bites","website":"brazibites.com","state_l":"Oregon","state_s":"OR","revenue":12938014,"zipcode":97212,"founded":2010,"industry":"Food & Beverage","latitude":45.54424,"metrocode":"Portland-Vancouver-Beaverton, OR-WA","longitude":-122.64347,"yrs_on_list":2,"previous_workers":3,"metro":"Portland, OR","partner_lists":""},{"id":87551,"url":"meridian-appraisal-management","rank":220,"city":"Chicago","ifmid":17,"ifiid":3,"growth":2126.7562,"workers":5,"company":"Meridian Appraisal Management","website":"meridianamc.com","state_l":"Illinois","state_s":"IL","revenue":2737240,"zipcode":60603,"founded":2013,"industry":"Real Estate","latitude":41.88019,"metrocode":"Chicago-Naperville-Elgin, IL-IN-WI","longitude":-87.62551,"yrs_on_list":1,"previous_workers":1,"metro":"Chicago","partner_lists":""},